listingName,listingType,latitude,longitude,googleMapsLink,AirBnBLink,city,state,country,Beds,Baths,RevenuePerYear,ADR,occupancyRate,starRating,numReviews
Apartment in Alkhoud Muscat,Entire Place,23.6147,58.1769,https://www.google.com/maps?q=23.6147,https://www.airbnb.com/rooms/1205069021322643186,Al Seeb,Muscat Governorate,Oman,1,1,550.75,33.8,4.26,4.82,33
Spacious room in comfortable villa with yard,Private Room,23.56904,58.38828,https://www.google.com/maps?q=23.56904,https://www.airbnb.com/rooms/652106029546117186,Muscat,Muscat Governorate,Oman,0,1,724.57,25.01,5.25,5,9
VIP Villa almouj muscat,Entire Place,23.62607,58.26765,https://www.google.com/maps?q=23.62607,https://www.airbnb.com/rooms/1027236139540989495,Muscat,Muscat Governorate,Oman,4,8,18843.59,207.91,15.81,4.9,20
Awesome Home,Entire Place,23.615,58.2478,https://www.google.com/maps?q=23.615,https://www.airbnb.com/rooms/1223110115942499911,Mawalih,Muscat Governorate,Oman,3,4,601.53,31.08,3.21,4,5
Baran Homestay,Private Room,23.62539,58.25239,https://www.google.com/maps?q=23.62539,https://www.airbnb.com/rooms/936673025289461383,Al Hail North,Muscat Governorate,Oman,0,2,486.3,9.31,9.1,,1
The Blue Gate 1,Entire Place,23.5722,58.6104,https://www.google.com/maps?q=23.5722,https://www.airbnb.com/rooms/1296843275521213162,Muscat,Muscat Governorate,Oman,1,1,192.37,39.55,0.82,4.2,5
Luxurious 1 bedroom flat at the heart of Muscat,Entire Place,23.62102,58.50164,https://www.google.com/maps?q=23.62102,https://www.airbnb.com/rooms/18122208,Muscat,Muscat Governorate,Oman,1,1,802.69,18.52,7.35,4.81,16
Cute & New Large Master Bedroom,Private Room,23.62058,58.20259,https://www.google.com/maps?q=23.62058,https://www.airbnb.com/rooms/897816981308422944,Seeb,Muscat Governorate,Oman,0,1,315.41,9.84,5.13,4.71,7
Mazon Stunning Omani House Near Souq Mutrah,Private Room,23.61812,58.56867,https://www.google.com/maps?q=23.61812,https://www.airbnb.com/rooms/48563194,Muscat,Muscat Governorate,Oman,0,3,833.93,36.62,3.85,4.89,9
Luxuriant one bedroom flat with modern furniture,Entire Place,23.57458,58.29887,https://www.google.com/maps?q=23.57458,https://www.airbnb.com/rooms/30685497,Muscat,Muscat Governorate,Oman,1,1,868.11,24.17,5.6,4.71,14
Harmony ~ 2 BHK Apartment ~ (Airport),Entire Place,23.6012,58.2423,https://www.google.com/maps?q=23.6012,https://www.airbnb.com/rooms/1487922166773078747,Al Seeb,Muscat Governorate,Oman,2,3,797.8,40.08,7.58,4.73,15
Private Room + Dedicated Bathroom Not Childproof,Private Room,23.59364778,58.24132135,https://www.google.com/maps?q=23.59364778,https://www.airbnb.com/rooms/1385417170562030010,Al Seeb,Muscat Governorate,Oman,0,1,11.72,7.22,0.41,5,9
Almawalih 10 minutes from airport,Private Room,23.604,58.239,https://www.google.com/maps?q=23.604,https://www.airbnb.com/rooms/1245374122327750423,Mawalih,Muscat Governorate,Oman,1,1,152.33,8.16,2.86,,1
Emerald’s Apartment,Entire Place,23.55664,58.40404,https://www.google.com/maps?q=23.55664,https://www.airbnb.com/rooms/1235429313155059938,Muscat,Muscat Governorate,Oman,1,1,5225.27,28.25,31.62,4.94,108
Al Juman Apartment,Entire Place,23.5653,58.4053,https://www.google.com/maps?q=23.5653,https://www.airbnb.com/rooms/1093932328038856170,Muscat,Muscat Governorate,Oman,2,4,629.84,34.32,3.03,4.76,21
LUX | Modern 3 BHK Suite with Terrace garden,Entire Place,23.65212,58.12501,https://www.google.com/maps?q=23.65212,https://www.airbnb.com/rooms/20835641,Seeb,Muscat Governorate,Oman,3,5,427.71,35.58,2.1,4.65,23
Siraj Cozy 5 mins Airport,Entire Place,23.62801,58.26643,https://www.google.com/maps?q=23.62801,https://www.airbnb.com/rooms/1098248186894487178,Muscat,Muscat Governorate,Oman,2,3,6236.93,45.94,22.4,4.52,25
Private 1BHK Top-Floor Apartment at Ghubrah Beach,Entire Place,23.60055525,58.4000172,https://www.google.com/maps?q=23.60055525,https://www.airbnb.com/rooms/1477758089958213285,Muscat,Muscat Governorate,Oman,1,1,1132.74,29.09,15.11,5,18
House of Kharusi,Entire Place,23.62,58.5782,https://www.google.com/maps?q=23.62,https://www.airbnb.com/rooms/969262925461880653,Muscat,Muscat Governorate,Oman,2,2,3049.62,116.88,4.32,,2
Muscat Seaside House,Entire Place,23.6034,58.3558,https://www.google.com/maps?q=23.6034,https://www.airbnb.com/rooms/1029542091734144438,Muscat,Muscat Governorate,Oman,5,10,4368.88,100.45,8.28,4.88,17
Private Apt + King Bed + Wifi + BeIN TV + Parking*,Entire Place,23.59467,58.39269,https://www.google.com/maps?q=23.59467,https://www.airbnb.com/rooms/42843535,Muscat,Muscat Governorate,Oman,2,3,7397.02,25.43,44.28,4.91,74
"#➊ Near Airport, Pool, Gym",Entire Place,23.6015,58.2432,https://www.google.com/maps?q=23.6015,https://www.airbnb.com/rooms/1284580495897680179,Mawalih,Muscat Governorate,Oman,1,2,4270.25,41.75,16.92,4.44,36
Square Quiet Apartment,Entire Place,23.5826,58.3923,https://www.google.com/maps?q=23.5826,https://www.airbnb.com/rooms/1073194273018222045,Muscat,Muscat Governorate,Oman,2,3,622.03,22.6,4.61,,2
Muscat Diplomatic Stay,Entire Place,23.5916,58.384,https://www.google.com/maps?q=23.5916,https://www.airbnb.com/rooms/1186561527825248116,Muscat,Muscat Governorate,Oman,1,2,2273.3,13.81,26.08,4.8,5
Comfortable/Peaceful/Elegant Apartment,Entire Place,23.5855,58.4449,https://www.google.com/maps?q=23.5855,https://www.airbnb.com/rooms/1176838470579547644,Muscat,Muscat Governorate,Oman,3,2,5548.49,45.52,22.05,4.53,19
"#➊ Near AlQurum Beach, Parking Available",Entire Place,23.5988,58.5023,https://www.google.com/maps?q=23.5988,https://www.airbnb.com/rooms/1217187073376276374,Muscat,Muscat Governorate,Oman,2,4,4398.17,51.38,14.24,4.67,18
Night apartments,Entire Place,23.52178281,58.50487843,https://www.google.com/maps?q=23.52178281,https://www.airbnb.com/rooms/1288347443962277965,Al Amerat,Muscat Governorate,Oman,2,3,723.59,17.79,6.88,5,3
Big family room,Private Room,23.6328664,58.21836247,https://www.google.com/maps?q=23.6328664,https://www.airbnb.com/rooms/1285902526223262415,Al Hail South,Muscat Governorate,Oman,1,4,247.06,17.79,2.22,4.82,11
Spacious flat in central Muscat,Entire Place,23.62158,58.50063,https://www.google.com/maps?q=23.62158,https://www.airbnb.com/rooms/1157266725378347609,Muscat,Muscat Governorate,Oman,2,0,289.05,28.15,1.75,4.95,20
penthouse room with lovely terrace,Private Room,23.5978,58.3681,https://www.google.com/maps?q=23.5978,https://www.airbnb.com/rooms/5503767,Muscat,Muscat Governorate,Oman,0,1,367.17,32.12,1.93,4.98,41
Pinnacle Row Cityscape Haven,Entire Place,23.60185317,58.39707878,https://www.google.com/maps?q=23.60185317,https://www.airbnb.com/rooms/1433418784874209935,Muscat,Muscat Governorate,Oman,2,3,2594.57,29.82,14.53,3.44,9
"Lovely 2 bedroom apartment, nearSupermarket, beach",Entire Place,23.59679,58.36667,https://www.google.com/maps?q=23.59679,https://www.airbnb.com/rooms/652511013902619262,Muscat,Muscat Governorate,Oman,2,2,329.08,41.23,1.28,,2
An amazing place in Muscat!,Private Room,23.60016,58.35659,https://www.google.com/maps?q=23.60016,https://www.airbnb.com/rooms/1202121440014053410,Muscat,Muscat Governorate,Oman,0,2,248.03,6.8,5.6,,1
Comfortable/Clean and Affordable Place OGP1864,Private Room,23.59238,58.44042,https://www.google.com/maps?q=23.59238,https://www.airbnb.com/rooms/53691795,Muscat,Muscat Governorate,Oman,0,1,121.09,7.74,3.85,4.29,21
Muchioni's Inn II (2-bedrooms) near Mall of Muscat,Entire Place,23.62589691,58.14251936,https://www.google.com/maps?q=23.62589691,https://www.airbnb.com/rooms/1495684480237674623,Al Seeb,Muscat Governorate,Oman,2,3,1063.41,24.59,18.32,4.75,12
Best Appartment in Al khuwair,Private Room,23.5968,58.434,https://www.google.com/maps?q=23.5968,https://www.airbnb.com/rooms/1317131996351766286,Muscat,Muscat Governorate,Oman,2,2,3260.55,28.04,18.85,4.5,6
Oceana Flat,Entire Place,23.60233,58.39983,https://www.google.com/maps?q=23.60233,https://www.airbnb.com/rooms/1184842776721268532,Muscat,Muscat Governorate,Oman,1,2,89.84,23.96,0.64,4.4,10
"Apartment in Muscat, beach, city centre, airport",Entire Place,23.61945442,58.25893429,https://www.google.com/maps?q=23.61945442,https://www.airbnb.com/rooms/1351775383146831935,Seeb,Muscat Governorate,Oman,2,3,7554.23,52.63,23.51,4.9,49
1 Bedroom Studio near Qurum shops & restaurants,Entire Place,23.6191,58.4964,https://www.google.com/maps?q=23.6191,https://www.airbnb.com/rooms/1033681816766294569,Muscat,Muscat Governorate,Oman,1,2,1054.62,16.53,9.45,4.67,15
oxygen Flat 5 mins from Airport,Entire Place,23.57673,58.29912,https://www.google.com/maps?q=23.57673,https://www.airbnb.com/rooms/805791451155706427,Muscat,Muscat Governorate,Oman,1,1,3848.4,26.79,23.98,4.75,28
Pearl Muscat  in Muscat Hills,Entire Place,23.5638,58.3634,https://www.google.com/maps?q=23.5638,https://www.airbnb.com/rooms/844181688012532371,Muscat,Muscat Governorate,Oman,1,2,352.52,34.53,1.75,4.67,6
Master bedroom In Muscat,Private Room,23.60208,58.23814,https://www.google.com/maps?q=23.60208,https://www.airbnb.com/rooms/1310841011791013592,Al Seeb,Muscat Governorate,Oman,0,2,23.44,7.53,0.47,4.8,5
JAMCO Villa 6480 Homestay Daily-Weekly-Monthly,Entire Place,23.588,58.3829,https://www.google.com/maps?q=23.588,https://www.airbnb.com/rooms/47838832,Muscat,Muscat Governorate,Oman,4,11,4373.76,71.47,9.74,4.76,17
Elegant & Budget Studio 5,Entire Place,23.62340962,58.48866545,https://www.google.com/maps?q=23.62340962,https://www.airbnb.com/rooms/1366500112178147631,Muscat,Muscat Governorate,Oman,1,2,1399.33,14.86,14.88,4.89,18
Private Room + Attached Bathroom – Not Childproof,Private Room,23.59306,58.23747,https://www.google.com/maps?q=23.59306,https://www.airbnb.com/rooms/1374023509518493501,Al Seeb,Muscat Governorate,Oman,0,1,190.42,6.8,5.43,4.71,21
Behlys Boutique,Private Room,23.60347,58.35833,https://www.google.com/maps?q=23.60347,https://www.airbnb.com/rooms/25520902,Muscat,Muscat Governorate,Oman,1,2,555.63,57.86,1.75,4.85,13
sunlight cozy room cornish,Entire Place,23.6173,58.5572,https://www.google.com/maps?q=23.6173,https://www.airbnb.com/rooms/1067193045940093610,Muscat,Muscat Governorate,Oman,0,1,273.42,7.53,4.96,4.27,15
"Cozy Flat in Bawshar, Muscat | Self check-in",Entire Place,23.568,58.4141,https://www.google.com/maps?q=23.568,https://www.airbnb.com/rooms/1083911772404013193,Muscat,Muscat Governorate,Oman,1,1,812.45,26.89,5.25,4.83,81
"Al Dhalal Farm Villa, Seaside Haven with Pools",Entire Place,23.6763,58.196,https://www.google.com/maps?q=23.6763,https://www.airbnb.com/rooms/1057039100812762980,Seeb,Muscat Governorate,Oman,3,11,3063.29,71.57,7.35,4.38,8
Old Muscat - private room No 3,Private Room,23.61499,58.59004,https://www.google.com/maps?q=23.61499,https://www.airbnb.com/rooms/1136914214197756229,Muscat,Muscat Governorate,Oman,0,1,1065.37,9.84,18.09,4.89,19
"Sema Chalia, where excellence and tranquility meet",Entire Place,23.5112,58.4514,https://www.google.com/maps?q=23.5112,https://www.airbnb.com/rooms/1221391756425018338,Al-Amrat,Muscat Governorate,Oman,2,1,1812.39,73.66,4.14,4.97,35
Backpacker spot - tiny cozy room,Private Room,23.60205,58.23117,https://www.google.com/maps?q=23.60205,https://www.airbnb.com/rooms/794815756328312408,Seeb,Muscat Governorate,Oman,1,1,8.79,9.31,0.18,4.95,22
Prestine Beach and Comfortable Studio OGP101,Private Room,23.56107,58.62764,https://www.google.com/maps?q=23.56107,https://www.airbnb.com/rooms/580384738047738502,Qantab,Muscat Governorate,Oman,0,2,437.47,9.42,7.53,4.45,47
"The Balcony/Entire Penthouse
Bays and marine view",Entire Place,23.61459,58.55833,https://www.google.com/maps?q=23.61459,https://www.airbnb.com/rooms/906343820414177208,Muscat,Muscat Governorate,Oman,1,1,3654.08,28.88,21.12,4.84,43
Comfortable/Clean and Affordable Place OGP1862,Private Room,23.5909,58.44152,https://www.google.com/maps?q=23.5909,https://www.airbnb.com/rooms/47560149,Muscat,Muscat Governorate,Oman,0,1,86.91,8.68,1.75,4.24,25
“Big Family Haven • Comfort & Space for Everyone”,Entire Place,23.5945,58.4132,https://www.google.com/maps?q=23.5945,https://www.airbnb.com/rooms/1436161573782054822,Muscat,Muscat Governorate,Oman,2,4,724.57,37.88,5.37,4.75,4
2-BDR Qurum flat near shops and restaurants.,Entire Place,23.62239,58.50311,https://www.google.com/maps?q=23.62239,https://www.airbnb.com/rooms/1337403455360584111,Muscat,Muscat Governorate,Oman,2,2,3100.4,34.32,15.81,4.76,17
ONE Pristine Beach Studio - 102,Private Room,23.56104,58.62688,https://www.google.com/maps?q=23.56104,https://www.airbnb.com/rooms/721719810219091585,Qantab,Muscat Governorate,Oman,0,1,124.99,8.27,2.39,4.38,21
Lovely 2BR in Heart of Downtown.,Entire Place,23.57561,58.40607,https://www.google.com/maps?q=23.57561,https://www.airbnb.com/rooms/1132538335768639767,Muscat,Muscat Governorate,Oman,2,0,827.1,36.62,3.97,3.8,10
"Rimal Residence, Home Away From Home III",Entire Place,23.57503,58.41267,https://www.google.com/maps?q=23.57503,https://www.airbnb.com/rooms/697843386196254830,Muscat,Muscat Governorate,Oman,1,1,3545.68,39.55,14.7,4.73,11
Arabian Night Nook - Red Jewel,Private Room,23.6221,58.487,https://www.google.com/maps?q=23.6221,https://www.airbnb.com/rooms/1041183831605011915,Muscat,Muscat Governorate,Oman,1,2,1031.19,25.53,7.18,5,3
"Cozy Room in Beachside Villa (2) - ""Male Only""",Private Room,23.60204,58.38306,https://www.google.com/maps?q=23.60204,https://www.airbnb.com/rooms/1449202163508956290,Muscat,Muscat Governorate,Oman,0,2,644.49,11.2,10.39,,1
Lyoan home The wave,Entire Place,23.6334,58.267,https://www.google.com/maps?q=23.6334,https://www.airbnb.com/rooms/1024361751564353528,Muscat,Muscat Governorate,Oman,2,3,13960.1,71.36,33.43,4.95,40
Comfortable/Clean and Affordable Place - 1798,Private Room,23.5942,58.44189,https://www.google.com/maps?q=23.5942,https://www.airbnb.com/rooms/1171675909390074911,Muscat,Muscat Governorate,Oman,0,1,711.87,7.01,15.81,4.15,13
Lovely 2 bedroom apartment for family,Entire Place,23.6297,58.4944,https://www.google.com/maps?q=23.6297,https://www.airbnb.com/rooms/623069034977410669,Muscat,Muscat Governorate,Oman,2,3,2779.13,33.17,14.06,4.57,28
High Residency. Fully Furnished & Spacious Apt,Entire Place,23.6129,58.4679,https://www.google.com/maps?q=23.6129,https://www.airbnb.com/rooms/731064495872311045,Muscat,Muscat Governorate,Oman,2,3,11003.24,36.1,50.53,4.81,84
Muscat Villa - 4 Bedroom Luxurious Villa,Entire Place,23.54356,58.35503,https://www.google.com/maps?q=23.54356,https://www.airbnb.com/rooms/25011369,Muscat,Muscat Governorate,Oman,4,6,2602.38,106.31,4.14,5,23
A’idah opulence villa,Entire Place,23.6804,58.15134,https://www.google.com/maps?q=23.6804,https://www.airbnb.com/rooms/32412583,Seeb,Muscat Governorate,Oman,4,6,9261.16,72.2,21.59,4.89,55
One bedroom apartment near the beach,Entire Place,23.6008,58.4,https://www.google.com/maps?q=23.6008,https://www.airbnb.com/rooms/613084332531156533,Muscat,Muscat Governorate,Oman,1,1,6655.85,29.51,38.39,4.84,104
The Blue Gate 3,Entire Place,23.56638,58.61642,https://www.google.com/maps?q=23.56638,https://www.airbnb.com/rooms/43837572,Muscat,Muscat Governorate,Oman,1,2,90.81,48.34,0.29,4.55,31
Enjoy your stay at Muscat with private pool,Entire Place,23.6537,58.2099,https://www.google.com/maps?q=23.6537,https://www.airbnb.com/rooms/1286244404428468840,Seeb,Muscat Governorate,Oman,1,1,638.63,37.67,2.86,,1
M’s Cozy Getaway,Entire Place,23.63289692,58.11159668,https://www.google.com/maps?q=23.63289692,https://www.airbnb.com/rooms/1330985259833461458,Al Seeb,Muscat Governorate,Oman,2,3,397.44,16.53,4.14,4.77,13
Opera1_Spacious & Central,Entire Place,23.5950635,58.42151264,https://www.google.com/maps?q=23.5950635,https://www.airbnb.com/rooms/1383665267975292811,Muscat,Muscat Governorate,Oman,3,4,2956.85,32.86,15.64,4.18,11
Kayan apartment4,Entire Place,23.5783,58.4194,https://www.google.com/maps?q=23.5783,https://www.airbnb.com/rooms/1044272512130505226,Muscat,Muscat Governorate,Oman,1,1,350.56,20.3,3.03,,1
Al Maabaila Apartment 2,Entire Place,23.6368,58.1418,https://www.google.com/maps?q=23.6368,https://www.airbnb.com/rooms/1272820191333026469,Al Mabelah,Muscat Governorate,Oman,2,4,359.35,23.54,2.57,4.5,4
"Cozy-Dozy: The Spot for Snoozin, Cruisin & Amusin",Private Room,23.5867,58.3578,https://www.google.com/maps?q=23.5867,https://www.airbnb.com/rooms/1254662121375850864,Muscat,Muscat Governorate,Oman,1,1,313.46,33.38,1.58,5,3
Apartment at Muscat,Entire Place,23.5612,58.4035,https://www.google.com/maps?q=23.5612,https://www.airbnb.com/rooms/1373947490284925436,Muscat,Muscat Governorate,Oman,1,1,636.68,34.22,3.85,4.63,19
Cozy House at Almouj,Entire Place,23.6302831,58.27311743,https://www.google.com/maps?q=23.6302831,https://www.airbnb.com/rooms/1397229824050479574,Muscat,Muscat Governorate,Oman,1,2,1747.94,57.34,9.69,5,16
Elegant Motel,Private Room,23.59412,58.2474,https://www.google.com/maps?q=23.59412,https://www.airbnb.com/rooms/1134382608657240120,Muscat,Muscat Governorate,Oman,1,1,412.08,13.71,5.13,5,24
Najm apartments (city centre),Entire Place,23.57718605,58.40529076,https://www.google.com/maps?q=23.57718605,https://www.airbnb.com/rooms/1420141258770113966,Muscat,Muscat Governorate,Oman,2,3,1215.75,32.96,14.88,4.67,3
NJM luxuries flat,Entire Place,23.63308,58.27137,https://www.google.com/maps?q=23.63308,https://www.airbnb.com/rooms/1211999131172765907,Muscat,Muscat Governorate,Oman,1,1,5402.99,52.42,18.09,5,8
Luxury 2-bedrooms condo with pool,Entire Place,23.629,58.2659,https://www.google.com/maps?q=23.629,https://www.airbnb.com/rooms/660733774502363785,Muscat,Muscat Governorate,Oman,2,2,7701.68,57.55,22.52,4.5,8
Qantab Beach Room,Private Room,23.55297,58.60813,https://www.google.com/maps?q=23.55297,https://www.airbnb.com/rooms/994958137077898099,Qantab,Muscat Governorate,Oman,1,1,95.7,13.29,1.28,4.67,3
Private and quite room,Private Room,23.63063,58.2651,https://www.google.com/maps?q=23.63063,https://www.airbnb.com/rooms/1077861085977783716,Muscat,Muscat Governorate,Oman,1,1,261.7,30.55,1.46,4.88,8
Muscat Governorate Matrah's mandate Port District,Entire Place,23.6241,58.5606,https://www.google.com/maps?q=23.6241,https://www.airbnb.com/rooms/917588119502356047,Muscat,Muscat Governorate,Oman,2,3,4153.07,24.28,29.58,4.74,99
Luxurious Flat  in Ghubrah beach,Entire Place,23.6009,58.4002,https://www.google.com/maps?q=23.6009,https://www.airbnb.com/rooms/895732447958034582,Muscat,Muscat Governorate,Oman,2,3,10240.59,45.94,38.51,4.97,111
Luxury Apartment | Al Mouj Muscat Marina View,Entire Place,23.6325,58.2713,https://www.google.com/maps?q=23.6325,https://www.airbnb.com/rooms/1136617031427648261,Al Seeb,Muscat Governorate,Oman,2,0,4148.19,89.46,7.99,4.89,19
Elegant three-room apartment,Entire Place,23.5638,58.42,https://www.google.com/maps?q=23.5638,https://www.airbnb.com/rooms/1458308912983333926,Muscat,Muscat Governorate,Oman,3,4,1560.45,27,8.81,,1
Majan Stunning Omani House Near Souq Mutrah,Private Room,23.61993,58.56798,https://www.google.com/maps?q=23.61993,https://www.airbnb.com/rooms/48956841,Muscat,Muscat Governorate,Oman,0,1,1360.27,36.62,6.42,4.43,7
Master room with 3 beds next to Azaiba beach,Private Room,23.59934556,58.35604396,https://www.google.com/maps?q=23.59934556,https://www.airbnb.com/rooms/1253437331996230662,Muscat,Muscat Governorate,Oman,0,3,367.17,9.73,6.24,4.88,32
Affordable Entire Two Bedroom Apartment,Entire Place,23.6288,58.1208,https://www.google.com/maps?q=23.6288,https://www.airbnb.com/rooms/636574453032000462,Seeb,Muscat Governorate,Oman,2,3,1902.23,16.43,20.77,4.34,41
Apartment in muscat Seeb,Entire Place,23.69389672,58.14364015,https://www.google.com/maps?q=23.69389672,https://www.airbnb.com/rooms/1409269468966562854,Al Seeb,Muscat Governorate,Oman,3,5,1344.65,201.84,2.1,4.5,4
Al-Zahra apartment for calm and relaxation,Entire Place,23.55018,58.63479,https://www.google.com/maps?q=23.55018,https://www.airbnb.com/rooms/1202933006041923516,Muscat,Muscat Governorate,Oman,1,1,1657.13,48.55,5.6,4.86,7
Stylish Marina Almouj Steps from Marina & Pool,Entire Place,23.63170307,58.27107898,https://www.google.com/maps?q=23.63170307,https://www.airbnb.com/rooms/1446840603188200853,Muscat,Muscat Governorate,Oman,1,1,1740.13,46.35,10.44,4.67,15
Chic & Comfortable 2-Bedroom Apartment,Entire Place,23.64188848,58.11482663,https://www.google.com/maps?q=23.64188848,https://www.airbnb.com/rooms/1508133730115232832,Al Seeb,Muscat Governorate,Oman,2,3,672.81,16.32,17.85,4.78,9
Sea View Appartment Seeb,Entire Place,23.6282,58.2692,https://www.google.com/maps?q=23.6282,https://www.airbnb.com/rooms/1381306496173903574,Al Seeb,Muscat Governorate,Oman,2,2,2047.73,46.14,9.34,4.9,31
Beach Star Residency,Entire Place,23.60169416,58.40164206,https://www.google.com/maps?q=23.60169416,https://www.airbnb.com/rooms/1235631223020158981,Muscat,Muscat Governorate,Oman,1,2,46.87,25.32,0.29,4.6,5
Come to the spacious house in the lively place,Entire Place,23.52328,58.49811,https://www.google.com/maps?q=23.52328,https://www.airbnb.com/rooms/1503714125025817582,Al-Amrat,Muscat Governorate,Oman,3,5,541.96,26.68,8.75,5,5
1BR w/ Garden & Rooftop Pool,Entire Place,23.6302,58.2715,https://www.google.com/maps?q=23.6302,https://www.airbnb.com/rooms/1403472682287424674,Muscat,Muscat Governorate,Oman,1,1,1442.3,43.42,7.23,4.85,20
Private Apt+ King Bed +Parking$,Entire Place,23.59612,58.39278,https://www.google.com/maps?q=23.59612,https://www.airbnb.com/rooms/1192630166795987272,Muscat,Muscat Governorate,Oman,1,1,5473.3,20.93,41.72,5,20
Cozy city center 1 BR flat,Entire Place,23.5656,58.4139,https://www.google.com/maps?q=23.5656,https://www.airbnb.com/rooms/770971110724452806,Muscat,Muscat Governorate,Oman,1,1,97.65,31.91,0.47,,2
Cozy Marsa 2 b - 5 min for Airport,Entire Place,23.62822,58.26945,https://www.google.com/maps?q=23.62822,https://www.airbnb.com/rooms/653385090371552553,Muscat,Muscat Governorate,Oman,1,1,7845.23,47.4,26.37,4.77,56
Old Muscat- Sidab,Entire Place,23.6048,58.5999,https://www.google.com/maps?q=23.6048,https://www.airbnb.com/rooms/1035432386688869338,Muscat,Muscat Governorate,Oman,1,1,1538.97,12.56,20.95,4.91,43
"Apartment in Muscat, located on Al Maha Street",Entire Place,23.5783,58.4194,https://www.google.com/maps?q=23.5783,https://www.airbnb.com/rooms/1044259978225361862,Muscat,Muscat Governorate,Oman,2,3,573.21,32.54,3.03,,2
3BR Luxury Bosher Stay by Mall of Oman,Entire Place,23.5646,58.4044,https://www.google.com/maps?q=23.5646,https://www.airbnb.com/rooms/1478154809805844970,Muscat,Muscat Governorate,Oman,3,5,1771.38,59.54,10.04,4.93,28
Grand Boushar Villa,Entire Place,23.56208,58.38171,https://www.google.com/maps?q=23.56208,https://www.airbnb.com/rooms/22330784,Muscat,Muscat Governorate,Oman,4,8,246.08,61,0.64,4.17,12
Luxury Scandi Style Retreat,Entire Place,23.62275,58.25805,https://www.google.com/maps?q=23.62275,https://www.airbnb.com/rooms/1197537789395036750,Al Hail North,Muscat Governorate,Oman,4,7,22212.53,101.18,34.72,4.77,39
Ramadi En-suite: Beachfront,Private Room,23.5734,58.611,https://www.google.com/maps?q=23.5734,https://www.airbnb.com/rooms/53568288,Muscat,Muscat Governorate,Oman,0,2,1430.58,20.09,11.67,4.97,30
Noor 2 bedroom apartment for beautiful holiday,Entire Place,23.61883,58.49964,https://www.google.com/maps?q=23.61883,https://www.airbnb.com/rooms/679474344344374624,Muscat,Muscat Governorate,Oman,2,3,2026.25,32.54,10.39,4,14
Lovely 2-bedroom apartment at AlMouj with a pool,Entire Place,23.62794,58.26614,https://www.google.com/maps?q=23.62794,https://www.airbnb.com/rooms/54134960,Muscat,Muscat Governorate,Oman,2,2,10543.31,66.34,26.37,4.99,96
Comfortable/Clean and Affordable Place OGP1865,Private Room,23.5918,58.4409,https://www.google.com/maps?q=23.5918,https://www.airbnb.com/rooms/47470686,Muscat,Muscat Governorate,Oman,0,1,52.73,7.85,1.11,4.42,45
"Bawshar Dunes Apartment, Building 433",Entire Place,23.55706,58.40313,https://www.google.com/maps?q=23.55706,https://www.airbnb.com/rooms/1210626837553289179,Muscat,Muscat Governorate,Oman,1,1,4663.78,29.82,27.19,4.96,52
Muscat City Stay | Walk to Malls Apt 108,Entire Place,23.56649,58.4119,https://www.google.com/maps?q=23.56649,https://www.airbnb.com/rooms/1492821837433407322,Muscat,Muscat Governorate,Oman,2,4,404.27,39.34,4.03,,2
Comfortable/Clean and Affordable Studio OGP1861,Entire Place,23.59346,58.44086,https://www.google.com/maps?q=23.59346,https://www.airbnb.com/rooms/45515570,Muscat,Muscat Governorate,Oman,0,1,57.61,9.31,1.11,4.73,11
The Blue Gate 5,Entire Place,23.56703,58.61663,https://www.google.com/maps?q=23.56703,https://www.airbnb.com/rooms/582342038726796722,Muscat,Muscat Governorate,Oman,2,3,172.84,59.12,0.47,4.38,8
your home away from home,Entire Place,23.6048,58.2261,https://www.google.com/maps?q=23.6048,https://www.airbnb.com/rooms/1202988364033289876,Al Seeb,Muscat Governorate,Oman,3,6,181.63,94.49,0.29,4.62,13
Tiny cozy house - best area,Entire Place,23.6069,58.4573,https://www.google.com/maps?q=23.6069,https://www.airbnb.com/rooms/926538754133314941,Muscat,Muscat Governorate,Oman,1,1,195.3,20.72,1.46,5,3
Two-bedroom apartment Muscat Bay,Entire Place,23.548,58.63594,https://www.google.com/maps?q=23.548,https://www.airbnb.com/rooms/925667482767188987,Qantab,Muscat Governorate,Oman,2,3,7493.69,61.11,20.95,4.83,18
Kama Place,Entire Place,23.6133,58.4655,https://www.google.com/maps?q=23.6133,https://www.airbnb.com/rooms/958488150137631727,Muscat,Muscat Governorate,Oman,2,3,5930.31,44.99,24.62,4.93,40
Opera 412Spacious & Central,Entire Place,23.57836831,58.41948595,https://www.google.com/maps?q=23.57836831,https://www.airbnb.com/rooms/1393875897805545635,Muscat,Muscat Governorate,Oman,2,3,816.36,28.36,5.13,4.74,19
Muscat Exotic Penthouse,Entire Place,23.6003,58.3648,https://www.google.com/maps?q=23.6003,https://www.airbnb.com/rooms/1408364823360673030,Muscat,Muscat Governorate,Oman,1,1,1056.58,27.1,16.69,5,13
"Modern, new room one minute walk to the beach.",Private Room,23.65845,58.22271,https://www.google.com/maps?q=23.65845,https://www.airbnb.com/rooms/32098912,Seeb,Muscat Governorate,Oman,0,1,585.9,19.88,4.78,4.75,48
OGP1793 Comfortable Clean and Affordable Studio,Private Room,23.59216,58.44229,https://www.google.com/maps?q=23.59216,https://www.airbnb.com/rooms/875388598197134675,Muscat,Muscat Governorate,Oman,0,1,2142.45,12.77,27.31,4.68,25
Qantab SeaGarden,Entire Place,23.56157,58.63212,https://www.google.com/maps?q=23.56157,https://www.airbnb.com/rooms/1155069212619127781,Qantab,Muscat Governorate,Oman,2,2,1544.83,38.09,6.24,5,5
Ryhan Historical House 5min Walk to Souq Mutrah,Private Room,23.62026,58.56745,https://www.google.com/maps?q=23.62026,https://www.airbnb.com/rooms/49193391,Muscat,Muscat Governorate,Oman,0,1,1148.37,26.37,7.53,,1
Spacious Home in Muscat with a private pool& Wi-Fi,Entire Place,23.63453,58.22035,https://www.google.com/maps?q=23.63453,https://www.airbnb.com/rooms/709904730392534619,Seeb,Muscat Governorate,Oman,3,4,9222.1,79.63,18.73,4.4,20
flat for rent sea view 37,Entire Place,23.65346,58.21087,https://www.google.com/maps?q=23.65346,https://www.airbnb.com/rooms/1193881797623075241,Seeb,Muscat Governorate,Oman,1,1,491.18,12.77,7.18,,1
Premium | Luxury Suite | 2BHK,Entire Place,23.65126,58.12496,https://www.google.com/maps?q=23.65126,https://www.airbnb.com/rooms/20832647,Seeb,Muscat Governorate,Oman,2,3,30.27,28.04,0.18,4.63,16
VILLA seeb 2 MIN walk to the beach,Entire Place,23.68822,58.16651,https://www.google.com/maps?q=23.68822,https://www.airbnb.com/rooms/1036853841732790954,Seeb,Muscat Governorate,Oman,3,5,5787.74,46.25,20.3,4.71,7
ONE Elegant Apartment (Resort & Mountain View),Entire Place,23.54868,58.63723,https://www.google.com/maps?q=23.54868,https://www.airbnb.com/rooms/52818449,Qantab,Muscat Governorate,Oman,1,3,1697.16,37.98,6.71,4.59,41
AlHarbi Mazaya apartment,Entire Place,23.60200983,58.24139424,https://www.google.com/maps?q=23.60200983,https://www.airbnb.com/rooms/1235607688160654881,Mawalih,Muscat Governorate,Oman,2,4,5735.01,33.9,28.94,4.46,13
"2 min. walk from Muttrah's Waterfront ""Corniche""",Entire Place,23.62425,58.55994,https://www.google.com/maps?q=23.62425,https://www.airbnb.com/rooms/905287,Muscat,Muscat Governorate,Oman,1,2,2738.12,26.89,17.56,4.85,422
Partition rooms without window. Shared bathroom,Private Room,23.59913567,58.35672214,https://www.google.com/maps?q=23.59913567,https://www.airbnb.com/rooms/1341304818688173516,Muscat,Muscat Governorate,Oman,0,1,113.27,4.6,3.97,4.89,61
"3.Premium Area, Snorkeling & paddle board",Private Room,23.61882,58.50195,https://www.google.com/maps?q=23.61882,https://www.airbnb.com/rooms/1291133698282268073,Muscat,Muscat Governorate,Oman,1,2,489.23,15.49,5.6,5,4
2-Bedroom Apartment Near the Beach,Entire Place,23.6562,58.22292,https://www.google.com/maps?q=23.6562,https://www.airbnb.com/rooms/674248059535034087,Seeb,Muscat Governorate,Oman,2,3,688.44,33.17,3.5,4.44,9
Entire house with swimming pool,Entire Place,23.61926,58.50684,https://www.google.com/maps?q=23.61926,https://www.airbnb.com/rooms/1239737930671397221,Muscat,Muscat Governorate,Oman,4,3,946.23,88.84,3.21,5,6
1 bedroom apartment Muscat Hills,Entire Place,23.57204,58.30372,https://www.google.com/maps?q=23.57204,https://www.airbnb.com/rooms/49608996,Muscat,Muscat Governorate,Oman,1,1,74.21,40.18,0.29,,1
"The Balcony/Entire penthouse
Bays and Marine view",Entire Place,23.6172,58.5582,https://www.google.com/maps?q=23.6172,https://www.airbnb.com/rooms/905758104420694694,Muscat,Muscat Governorate,Oman,1,1,3013.49,27.73,17.91,4.4,30
"City Gem - 2 Bedroom
3 Beds",Entire Place,23.6233,58.5037,https://www.google.com/maps?q=23.6233,https://www.airbnb.com/rooms/1047684150012863157,Muscat,Muscat Governorate,Oman,2,2,1819.23,64.98,4.78,,1
Bedroom and private bathroom  2 mins from beach.,Entire Place,23.61573,58.47093,https://www.google.com/maps?q=23.61573,https://www.airbnb.com/rooms/16172682,Muscat,Muscat Governorate,Oman,1,2,948.19,27.73,6.24,4.96,24
"Partition room with window, shared bathroom",Private Room,23.59902,58.35662,https://www.google.com/maps?q=23.59902,https://www.airbnb.com/rooms/1467278673890785603,Muscat,Muscat Governorate,Oman,0,1,156.24,5.76,8.34,4.86,21
Beautiful 2BR Townhouse,Entire Place,23.6298,58.2696,https://www.google.com/maps?q=23.6298,https://www.airbnb.com/rooms/1012311790021697715,Muscat,Muscat Governorate,Oman,2,2,2934.39,44.47,11.67,4.86,22
Qantab Hut,Private Room,23.56035,58.63057,https://www.google.com/maps?q=23.56035,https://www.airbnb.com/rooms/1078146909314840633,Qantab,Muscat Governorate,Oman,1,1,2975.41,22.39,23.51,5,13
Apartment in Mwaleh - very clean,Entire Place,23.5995,58.2429,https://www.google.com/maps?q=23.5995,https://www.airbnb.com/rooms/816976124635399330,Seeb,Muscat Governorate,Oman,1,1,73.24,25.95,0.47,5,4
"Tariq’s Apartment in Oman, Seeb, Maabela",Entire Place,23.64431,58.14138,https://www.google.com/maps?q=23.64431,https://www.airbnb.com/rooms/784543553038994049,Seeb,Muscat Governorate,Oman,2,3,329.08,21.87,2.57,4.61,18
Spacious King Stay | Muscat,Private Room,23.65083631,58.09491632,https://www.google.com/maps?q=23.65083631,https://www.airbnb.com/rooms/1259829912509533083,Muscat,Muscat Governorate,Oman,1,1,34.18,12.56,0.64,,2
"Classy BR with Pool, Gym, Beach. Almouj (The Wave)",Private Room,23.63104,58.27088,https://www.google.com/maps?q=23.63104,https://www.airbnb.com/rooms/40077411,Muscat,Muscat Governorate,Oman,0,1,444.31,29.72,2.57,4.91,46
Rest-Inn one bedroom apartment,Entire Place,23.58096,58.39527,https://www.google.com/maps?q=23.58096,https://www.airbnb.com/rooms/1169572869576555177,Muscat,Muscat Governorate,Oman,1,0,122.06,18.21,1.11,4,6
luxury_silent &nearby mall & sea,Private Room,23.5745,58.4135,https://www.google.com/maps?q=23.5745,https://www.airbnb.com/rooms/1205710358713902709,Muscat,Muscat Governorate,Oman,0,1,482.39,19.78,4.32,5,55
Middle of commercial area,Entire Place,23.62624,58.21955,https://www.google.com/maps?q=23.62624,https://www.airbnb.com/rooms/1084733758598481505,Seeb,Muscat Governorate,Oman,2,0,231.43,25.22,1.58,4.67,3
Woody Flat,Entire Place,23.62924,58.26855,https://www.google.com/maps?q=23.62924,https://www.airbnb.com/rooms/799706510577529712,Muscat,Muscat Governorate,Oman,2,4,5019.23,42.48,18.2,4.64,56
Your Second home B in Muscat,Entire Place,23.61458,58.22123,https://www.google.com/maps?q=23.61458,https://www.airbnb.com/rooms/1088214334033305998,Seeb,Muscat Governorate,Oman,2,4,786.09,21.76,6.42,5,4
Cozy one bed room apartment,Entire Place,23.594,58.43359,https://www.google.com/maps?q=23.594,https://www.airbnb.com/rooms/1262976083745859993,Muscat,Muscat Governorate,Oman,1,1,592.74,21.56,4.49,4.13,8
"Monthly Rent Onyx F62, Mountain view with Balcony",Entire Place,23.5771,58.42,https://www.google.com/maps?q=23.5771,https://www.airbnb.com/rooms/1472244359550340584,Muscat,Muscat Governorate,Oman,2,4,383.77,32.86,3.91,4.5,12
Asayel Apartment,Private Room,23.6005,58.4008,https://www.google.com/maps?q=23.6005,https://www.airbnb.com/rooms/1515871601191956939,Muscat,Muscat Governorate,Oman,1,2,899.36,30.34,13.07,5,9
Everything U Need.All Right Here,Entire Place,23.6219,58.5017,https://www.google.com/maps?q=23.6219,https://www.airbnb.com/rooms/824627768146980207,Muscat,Muscat Governorate,Oman,1,0,503.88,26.89,3.21,4.86,22
Modern and Spacious Apartment with 2 Bedrooms,Entire Place,23.5908,58.4303,https://www.google.com/maps?q=23.5908,https://www.airbnb.com/rooms/1380357106777120224,Muscat,Muscat Governorate,Oman,2,4,1452.06,41.44,7.06,4.92,13
Private Apt + King Bed + Wifi + BeIN TV + Parking~,Entire Place,23.59644,58.39148,https://www.google.com/maps?q=23.59644,https://www.airbnb.com/rooms/46309298,Muscat,Muscat Governorate,Oman,2,3,7218.32,24.28,46.68,4.97,90
Old Muscat Homestay,Private Room,23.6097,58.5921,https://www.google.com/maps?q=23.6097,https://www.airbnb.com/rooms/970666311429785924,Muscat,Muscat Governorate,Oman,1,2,2172.72,15.28,24.91,4.78,9
24 Hujra Single BedRoom,Private Room,23.604,58.2464,https://www.google.com/maps?q=23.604,https://www.airbnb.com/rooms/1135516835217082471,Seeb,Muscat Governorate,Oman,0,2,229.48,15.49,2.57,,1
Muscat Central near the Dunes,Entire Place,23.56288769,58.40257544,https://www.google.com/maps?q=23.56288769,https://www.airbnb.com/rooms/1309662424819854911,Muscat,Muscat Governorate,Oman,1,1,607.39,23.65,4.61,4.86,7
Stunning Beachfront Chalet with,Entire Place,23.5524,58.6403,https://www.google.com/maps?q=23.5524,https://www.airbnb.com/rooms/1215125033733160021,Qantab,Muscat Governorate,Oman,3,4,2566.25,230.41,1.93,,1
Luxurious Ocean View Apartment (Marina Access),Entire Place,23.6325,58.2719,https://www.google.com/maps?q=23.6325,https://www.airbnb.com/rooms/1491508966739447672,Muscat,Muscat Governorate,Oman,1,1,2470.55,64.56,16.16,4.69,13
Luxury 1 BR-Flat-AlQurm-Muscat | Pool+Gym+Parking,Entire Place,23.6235,58.5038,https://www.google.com/maps?q=23.6235,https://www.airbnb.com/rooms/1101838426450530211,Muscat,Muscat Governorate,Oman,1,1,3721.46,48.45,12.6,5,6
A room of good memories,Private Room,23.5959,58.3678,https://www.google.com/maps?q=23.5959,https://www.airbnb.com/rooms/1026415620733781840,Muscat,Muscat Governorate,Oman,0,4,46.87,11.72,0.64,,1
"2 bedrooms,
The wave new wave apartment",Entire Place,23.63071,58.2665,https://www.google.com/maps?q=23.63071,https://www.airbnb.com/rooms/1191867346508323004,Muscat,Muscat Governorate,Oman,2,2,1525.3,58.91,4.49,4.8,25
Humble mini apartment,Entire Place,23.6592,58.121,https://www.google.com/maps?q=23.6592,https://www.airbnb.com/rooms/777150994523692613,Seeb,Muscat Governorate,Oman,2,3,3111.14,16.11,33.43,4.79,29
Your Second Home in OMAN Muscat Seeb,Entire Place,23.61666,58.19952,https://www.google.com/maps?q=23.61666,https://www.airbnb.com/rooms/40654006,Seeb,Muscat Governorate,Oman,2,3,1890.51,23.75,13.24,4.94,16
Cozy Amazing Al Fay Villa,Entire Place,23.64951,58.18137,https://www.google.com/maps?q=23.64951,https://www.airbnb.com/rooms/946284346042585218,Seeb,Muscat Governorate,Oman,6,8,4237.05,68.85,8.93,4.75,16
Muchioni's Inn III (1-bedroom) near Mall of Muscat,Entire Place,23.62746,58.14318,https://www.google.com/maps?q=23.62746,https://www.airbnb.com/rooms/1463008193525545190,Al Seeb,Muscat Governorate,Oman,1,1,556.61,20.3,9.51,5,9
Muscatsands sand view,Entire Place,23.55804,58.40355,https://www.google.com/maps?q=23.55804,https://www.airbnb.com/rooms/1200681773783144066,Muscat,Muscat Governorate,Oman,1,1,1673.73,31.6,9.1,4.67,18
Luxury 1 modern  bedroom flat with pool view.,Entire Place,23.57584,58.41323,https://www.google.com/maps?q=23.57584,https://www.airbnb.com/rooms/724265678302258553,Muscat,Muscat Governorate,Oman,1,1,1351.48,36.2,6.42,4.64,64
Single Room In Qurum Beach Hotel 3rd Floor,Hotel Room,23.62724,58.48621,https://www.google.com/maps?q=23.62724,https://www.airbnb.com/rooms/5450782,Muscat,Muscat Governorate,Oman,1,1,8.79,11.09,0.18,4.21,14
Cozy Studio Balcony & Security,Entire Place,23.5658,58.424,https://www.google.com/maps?q=23.5658,https://www.airbnb.com/rooms/1405177866524408539,Muscat,Muscat Governorate,Oman,1,1,480.44,21.97,4.96,4.84,38
Elegant Stay by the Mountains in Bousher,Entire Place,23.5643,58.4197,https://www.google.com/maps?q=23.5643,https://www.airbnb.com/rooms/1486962712993427153,Muscat,Muscat Governorate,Oman,1,1,718.71,27.62,9.69,4.87,23
Arabian Night Nook - Al Wadi,Private Room,23.622,58.4868,https://www.google.com/maps?q=23.622,https://www.airbnb.com/rooms/1131253015212861534,Muscat,Muscat Governorate,Oman,0,1,1943.24,23.44,13.89,4.33,3
"4.Affordable Luxury, Snorkeling & Paddle board",Private Room,23.62507136,58.49678953,https://www.google.com/maps?q=23.62507136,https://www.airbnb.com/rooms/1343946260916927216,Muscat,Muscat Governorate,Oman,1,2,355.45,14.02,7.06,5,3
The home,Entire Place,23.621,58.261,https://www.google.com/maps?q=23.621,https://www.airbnb.com/rooms/1228329360842101855,Muscat,Muscat Governorate,Oman,1,1,402.32,47.71,1.28,,
Hilltop King Bed Massive Apartment W/parking,Entire Place,23.61865,58.50606,https://www.google.com/maps?q=23.61865,https://www.airbnb.com/rooms/998962107996431787,Muscat,Muscat Governorate,Oman,3,3,94.72,15.28,0.82,3.83,12
Remal Boushar 2,Entire Place,23.5578,58.4117,https://www.google.com/maps?q=23.5578,https://www.airbnb.com/rooms/1166770799171677848,Muscat,Muscat Governorate,Oman,2,5,546.84,23.86,3.97,3.6,5
Rustic by the Beach,Private Room,23.58,58.609,https://www.google.com/maps?q=23.58,https://www.airbnb.com/rooms/932225426594251576,Muscat,Muscat Governorate,Oman,1,3,855.42,20.72,7.53,,1
Lovely apartment in Bawshar/ Muscat,Entire Place,23.57207962,58.41283149,https://www.google.com/maps?q=23.57207962,https://www.airbnb.com/rooms/1378895500720358827,Muscat,Muscat Governorate,Oman,2,2,4863.96,32.02,26.08,4.92,37
Boulevard l Deluxe double bed /King bed,Private Room,23.6571,58.1808,https://www.google.com/maps?q=23.6571,https://www.airbnb.com/rooms/933088332873961465,Seeb,Muscat Governorate,Oman,7,10,402.32,37.46,1.75,4.33,3
private room and bathroom with Wi-Fi,Private Room,23.62943,58.49517,https://www.google.com/maps?q=23.62943,https://www.airbnb.com/rooms/748439734530866660,Muscat,Muscat Governorate,Oman,0,2,643.52,10.05,11.49,4.95,59
Mazaya,Entire Place,23.562,58.4042,https://www.google.com/maps?q=23.562,https://www.airbnb.com/rooms/914085538440831867,Muscat,Muscat Governorate,Oman,2,4,563.44,53.89,1.75,5,5
Al Maabaila Apartment,Entire Place,23.6281,58.14,https://www.google.com/maps?q=23.6281,https://www.airbnb.com/rooms/1254446253124844949,Al Mabelah,Muscat Governorate,Oman,2,4,1305.59,24.9,9.57,4.88,8
Matrah Heart-3,Shared Room,23.61212,58.5474,https://www.google.com/maps?q=23.61212,https://www.airbnb.com/rooms/41602225,Muscat,Muscat Governorate,Oman,0,1,8.79,4.5,0.29,4.94,53
Qurum Serenity: 2-BR in Muscat,Entire Place,23.6225,58.5002,https://www.google.com/maps?q=23.6225,https://www.airbnb.com/rooms/1092748876623272764,Muscat,Muscat Governorate,Oman,2,3,2991.03,33.48,15.17,4.31,16
"Nice apartment, the most elegant",Entire Place,23.5642,58.4202,https://www.google.com/maps?q=23.5642,https://www.airbnb.com/rooms/982930723100112593,Muscat,Muscat Governorate,Oman,2,3,871.04,28.04,5.25,,1
Prestine Beach and Comfortable Apartment OGP2903,Entire Place,23.56015,58.62746,https://www.google.com/maps?q=23.56015,https://www.airbnb.com/rooms/837544410033473543,Qantab,Muscat Governorate,Oman,2,2,4922.55,34.11,25.55,4.65,37
Pinnacle Row – Seaview Elegance,Entire Place,23.6007,58.4005,https://www.google.com/maps?q=23.6007,https://www.airbnb.com/rooms/1227465191554915032,Muscat,Muscat Governorate,Oman,1,1,2312.36,25.11,14.53,4.2,10
Modern 1BHK Apartment Muscat Bay,Entire Place,23.54612,58.63621,https://www.google.com/maps?q=23.54612,https://www.airbnb.com/rooms/993142003632875302,Muttrah,Muscat Governorate,Oman,1,3,1376.87,53.78,4.32,,2
Peaceful Mountain View King Room,Private Room,23.5625,58.6291,https://www.google.com/maps?q=23.5625,https://www.airbnb.com/rooms/1141748624198189946,Qantab,Muscat Governorate,Oman,1,2,3668.72,58.18,10.85,4.9,10
Clean & comfortable 2 Bedroom apartment,Entire Place,23.63285,58.14234,https://www.google.com/maps?q=23.63285,https://www.airbnb.com/rooms/32153895,Seeb,Muscat Governorate,Oman,2,2,48.83,26.26,0.29,5,3
24 Hujra Queen BedRoom,Private Room,23.60494,58.24698,https://www.google.com/maps?q=23.60494,https://www.airbnb.com/rooms/1135434204251881949,Seeb,Muscat Governorate,Oman,0,1,447.24,15.59,4.49,,2
"#➊ 10min By Car To Beach, Parking Available",Entire Place,23.5988,58.5024,https://www.google.com/maps?q=23.5988,https://www.airbnb.com/rooms/1145734691475319273,Muscat,Muscat Governorate,Oman,1,2,3408.97,37.04,14.88,4.65,40
Ruwi SofteyIceCream building.,Entire Place,23.59078,58.54195,https://www.google.com/maps?q=23.59078,https://www.airbnb.com/rooms/7915908,Muscat,Muscat Governorate,Oman,2,2,1147.39,11.82,17.09,4.67,21
The Coral Reef Apartment with Sea View ⭐,Entire Place,23.59559,58.60214,https://www.google.com/maps?q=23.59559,https://www.airbnb.com/rooms/32753428,Muscat,Muscat Governorate,Oman,3,5,2696.13,32.33,13.89,4.91,121
Daily Apartment Rental,Entire Place,23.6278,58.1396,https://www.google.com/maps?q=23.6278,https://www.airbnb.com/rooms/1197105391417957192,Al Mabelah,Muscat Governorate,Oman,2,3,2618.01,28.25,15.81,4.93,27
"Taaj 1-bedroom, free parking, Internet and outdoor",Entire Place,23.59924,58.3645,https://www.google.com/maps?q=23.59924,https://www.airbnb.com/rooms/54282632,Muscat,Muscat Governorate,Oman,0,1,119.13,21.87,0.93,5,4
"Onyx F64, 2BHK lovely HOME in heart of Muscat",Entire Place,23.5771,58.4199,https://www.google.com/maps?q=23.5771,https://www.airbnb.com/rooms/1444831775827859233,Muscat,Muscat Governorate,Oman,2,4,1173.76,35.37,9.22,4.73,15
Royal Al Arfan Apartment,Entire Place,23.5819,58.3383,https://www.google.com/maps?q=23.5819,https://www.airbnb.com/rooms/1415744680382436177,Muscat,Muscat Governorate,Oman,2,2,1165.95,32.65,6.24,,2
SeaLife EcoHouse Muscat_Qantab,Entire Place,23.5625,58.6292,https://www.google.com/maps?q=23.5625,https://www.airbnb.com/rooms/835485757235390519,Qantab,Muscat Governorate,Oman,2,3,6767.17,40.18,25.73,4.96,56
boulevard flat,Entire Place,23.6535,58.1829,https://www.google.com/maps?q=23.6535,https://www.airbnb.com/rooms/1464008916029142551,Muscat,Muscat Governorate,Oman,2,4,699.18,33.48,8.58,5,4
Luxury apartment,Entire Place,23.6825,58.1338,https://www.google.com/maps?q=23.6825,https://www.airbnb.com/rooms/1405789712450081759,Al Seeb,Muscat Governorate,Oman,2,3,214.83,26.89,1.87,5,5
Night apartments,Entire Place,23.5229,58.5045,https://www.google.com/maps?q=23.5229,https://www.airbnb.com/rooms/955018503516761174,Al Amerat,Muscat Governorate,Oman,2,3,636.68,17.89,6.07,3.5,4
Marhaba Retreats,Entire Place,23.5944,58.4085,https://www.google.com/maps?q=23.5944,https://www.airbnb.com/rooms/1069718077185657444,Muscat,Muscat Governorate,Oman,1,0,1082.94,30.03,6.07,4.75,8
Modern Apartment with Cozy Vibes in Bousher,Entire Place,23.5679,58.4149,https://www.google.com/maps?q=23.5679,https://www.airbnb.com/rooms/1221788362798445814,Muscat,Muscat Governorate,Oman,1,1,217.76,25.53,1.46,4.68,41
Pretty apartment by the sea,Private Room,23.5728,58.6094,https://www.google.com/maps?q=23.5728,https://www.airbnb.com/rooms/1004084662170896064,Muscat,Muscat Governorate,Oman,1,1,711.87,14.13,9.28,4.94,34
OGP1791-Comfortable/Clean and Affordable Apartment,Entire Place,23.59245,58.44211,https://www.google.com/maps?q=23.59245,https://www.airbnb.com/rooms/34797790,Muscat,Muscat Governorate,Oman,1,1,122.06,9.94,2.1,4.53,40
good location,Private Room,23.6013,58.3691,https://www.google.com/maps?q=23.6013,https://www.airbnb.com/rooms/1251448508108599305,Muscat,Muscat Governorate,Oman,2,2,211.9,11.2,3.03,5,3
Arabian Night Nook - Dar Al Noor,Private Room,23.622,58.487,https://www.google.com/maps?q=23.622,https://www.airbnb.com/rooms/1131243696206583349,Muscat,Muscat Governorate,Oman,1,1,523.41,30.03,3.21,,
Arabian Night Nook - Oasis Haven,Private Room,23.622,58.4868,https://www.google.com/maps?q=23.622,https://www.airbnb.com/rooms/1118155643375186422,Muscat,Muscat Governorate,Oman,0,4,2448.09,25.64,15.81,4.86,7
Old Muscat-private Room No 2,Private Room,23.6148,58.5889,https://www.google.com/maps?q=23.6148,https://www.airbnb.com/rooms/1136906769660147644,Muscat,Muscat Governorate,Oman,0,1,473.6,9.63,8.81,5,10
Private Apt + King Bed + Wifi + BeIN TV + Parking_,Entire Place,23.59426,58.39206,https://www.google.com/maps?q=23.59426,https://www.airbnb.com/rooms/36435557,Muscat,Muscat Governorate,Oman,2,4,7384.32,24.28,47.78,4.98,111
"Room in Qurum, Muscat",Private Room,23.62408,58.48978,https://www.google.com/maps?q=23.62408,https://www.airbnb.com/rooms/864947484397161328,Muscat,Muscat Governorate,Oman,0,2,3308.39,18.63,29.58,5,33
2-Bedroom Flat near Qurum shops and restaurants,Entire Place,23.61902,58.49642,https://www.google.com/maps?q=23.61902,https://www.airbnb.com/rooms/870346552861438544,Muscat,Muscat Governorate,Oman,2,5,2551.6,31.6,13.89,4.63,46
Premium | Luxury Suite,Private Room,23.65064,58.12637,https://www.google.com/maps?q=23.65064,https://www.airbnb.com/rooms/20774808,Seeb,Muscat Governorate,Oman,2,1,39.06,19.88,0.29,4.57,7
Muscat hills apartments,Entire Place,23.574,58.2976,https://www.google.com/maps?q=23.574,https://www.airbnb.com/rooms/1095127897944350191,Muscat,Muscat Governorate,Oman,2,0,1967.65,35.58,9.28,4.18,11
Matrah Heart-2,Shared Room,23.61393,58.5479,https://www.google.com/maps?q=23.61393,https://www.airbnb.com/rooms/41539925,Muscat,Muscat Governorate,Oman,0,1,15.62,4.6,0.64,4.85,13
apartment for rent,Entire Place,23.62174,58.50265,https://www.google.com/maps?q=23.62174,https://www.airbnb.com/rooms/1018003336576752398,Muscat,Muscat Governorate,Oman,2,2,1390.54,46.56,5.13,,2
Mountain View Ruwi 2 bedroom 2 bathroom 1 Balcony,Entire Place,23.59039,58.54305,https://www.google.com/maps?q=23.59039,https://www.airbnb.com/rooms/941684329621275057,Muscat,Muscat Governorate,Oman,2,2,407.2,14.23,4.96,4.92,25
Room number 7,Private Room,23.63449,58.21684,https://www.google.com/maps?q=23.63449,https://www.airbnb.com/rooms/1285889196162823026,Al Hail South,Muscat Governorate,Oman,1,2,314.43,11.61,4.32,4.8,5
"Heart of Muscat , Home away from Home",Entire Place,23.57574,58.41139,https://www.google.com/maps?q=23.57574,https://www.airbnb.com/rooms/46597328,Muscat,Muscat Governorate,Oman,1,2,455.05,43.01,1.93,4.8,44
"Cozy Room in Beachside Villa (3) - ""Male Only""",Private Room,23.60209064,58.38200024,https://www.google.com/maps?q=23.60209064,https://www.airbnb.com/rooms/1449195708396349326,Muscat,Muscat Governorate,Oman,0,2,1186.45,7.95,22.23,4.93,14
Anwar Muscat Apartment,Entire Place,23.58197,58.3378,https://www.google.com/maps?q=23.58197,https://www.airbnb.com/rooms/1323698626870731977,Muscat,Muscat Governorate,Oman,2,3,1430.58,41.96,5.6,5,21
Room inside an apartment close to the airport,Private Room,23.5875,58.3695,https://www.google.com/maps?q=23.5875,https://www.airbnb.com/rooms/1345694980040155997,Muscat,Muscat Governorate,Oman,0,1,720.66,9.63,11.96,4.62,21
Partition rooms without window. Shared bathroom,Private Room,23.6,58.3563,https://www.google.com/maps?q=23.6,https://www.airbnb.com/rooms/1335955493381363613,Muscat,Muscat Governorate,Oman,0,1,63.47,4.5,2.22,4.75,28
Standard 4 bed room villa,Entire Place,23.64282,58.21051,https://www.google.com/maps?q=23.64282,https://www.airbnb.com/rooms/744873990887716468,Seeb,Muscat Governorate,Oman,4,5,5825.82,79.21,13.13,4.65,57
"Fully Furnished Lovely
2 Bedroom VacationApartment",Entire Place,23.6114,58.4541,https://www.google.com/maps?q=23.6114,https://www.airbnb.com/rooms/737348171094190392,Muscat,Muscat Governorate,Oman,2,2,958.93,52.53,3.21,4.39,28
Cozy room-attached bathroom-close to beach,Private Room,23.58901681,58.38171814,https://www.google.com/maps?q=23.58901681,https://www.airbnb.com/rooms/1251091697756232081,Muscat,Muscat Governorate,Oman,0,1,1624.9,8.68,31.51,5,11
Al Aryam Villa,Entire Place,23.60647,58.22854,https://www.google.com/maps?q=23.60647,https://www.airbnb.com/rooms/49381231,Seeb,Muscat Governorate,Oman,4,5,6846.27,69.48,16.8,4.57,14
unique 2 story beachfront villa,Entire Place,23.6051,58.3565,https://www.google.com/maps?q=23.6051,https://www.airbnb.com/rooms/942434351738573483,Muscat,Muscat Governorate,Oman,2,3,6680.26,48.55,23.16,4.91,11
Arabian Night Nook - Desert Wind,Private Room,23.6221,58.487,https://www.google.com/maps?q=23.6221,https://www.airbnb.com/rooms/1021681099014195938,Muscat,Muscat Governorate,Oman,0,3,1324.14,26.16,9.1,5,3
Cozy apartment in Muscat,Entire Place,23.59781605,58.3789511,https://www.google.com/maps?q=23.59781605,https://www.airbnb.com/rooms/1272522473983186116,Muscat,Muscat Governorate,Oman,1,0,683.55,25.95,4.14,5,4
Matrah Heart-4,Shared Room,23.61239,58.5493,https://www.google.com/maps?q=23.61239,https://www.airbnb.com/rooms/41474982,Muscat,Muscat Governorate,Oman,0,1,128.9,4.6,5.13,4.9,91
"super large room, privet bathroom, sea view",Private Room,23.6277,58.4844,https://www.google.com/maps?q=23.6277,https://www.airbnb.com/rooms/830887085075603927,Muscat,Muscat Governorate,Oman,0,1,1745.99,10.78,27.66,4.96,28
One Bedroom DT,Entire Place,23.62885,58.23274,https://www.google.com/maps?q=23.62885,https://www.airbnb.com/rooms/953615494321167997,Hail Al Awamir,Muscat Governorate,Oman,1,1,827.1,25.74,5.78,,2
Luxurious beach-front Apartment,Entire Place,23.6024,58.4003,https://www.google.com/maps?q=23.6024,https://www.airbnb.com/rooms/1311448497206373329,Muscat,Muscat Governorate,Oman,2,2,1973.51,52.84,6.42,4.5,22
A Cozy Penthouse Home,Entire Place,23.6331,58.2385,https://www.google.com/maps?q=23.6331,https://www.airbnb.com/rooms/791343345653911351,Hail Al Awamir,Muscat Governorate,Oman,2,2,1045.84,27.1,7.35,4.5,8
Luxury Apartment in Boshar,Entire Place,23.57351,58.41219,https://www.google.com/maps?q=23.57351,https://www.airbnb.com/rooms/911500681478107995,Muscat,Muscat Governorate,Oman,1,1,4616.91,33.69,23.8,4.77,107
"2.Paddle board & Snorkeling, Free airport transfer",Private Room,23.62324922,58.48931222,https://www.google.com/maps?q=23.62324922,https://www.airbnb.com/rooms/1330906495677506962,Muscat,Muscat Governorate,Oman,1,2,434.54,13.29,5.6,4.92,12
Middle of everywhere,Entire Place,23.5411,58.3562,https://www.google.com/maps?q=23.5411,https://www.airbnb.com/rooms/42400489,Muscat,Muscat Governorate,Oman,2,2,2191.27,34.32,11.03,4.8,5
Lovely 2 bedrooms high std apartm. -Self Check in-,Entire Place,23.58114,58.33623,https://www.google.com/maps?q=23.58114,https://www.airbnb.com/rooms/54311733,Muscat,Muscat Governorate,Oman,2,2,1187.43,66.44,2.86,4.97,35
Bujalux Apartment,Entire Place,23.5772,58.4057,https://www.google.com/maps?q=23.5772,https://www.airbnb.com/rooms/1249346335761793998,Muscat,Muscat Governorate,Oman,2,3,1525.3,32.75,10.56,4.82,22
Private En-suite,Private Room,23.59153875,58.40463275,https://www.google.com/maps?q=23.59153875,https://www.airbnb.com/rooms/1280179592421800568,Muscat,Muscat Governorate,Oman,0,1,784.13,8.27,13.89,4.55,11
Bait Ahlam - Oman Heritage on Beach,Entire Place,23.56393,58.6278,https://www.google.com/maps?q=23.56393,https://www.airbnb.com/rooms/51471367,Qantab,Muscat Governorate,Oman,1,3,10580.42,43.95,37.4,5,134
Sukoon  Luxurious Apartment Near The Beach 76,Entire Place,23.6002,58.4008,https://www.google.com/maps?q=23.6002,https://www.airbnb.com/rooms/1045540813913525550,Muscat,Muscat Governorate,Oman,1,1,7448.77,30.76,41.07,4.81,62
Stunning Sea & Lagoon Views at The Wave,Entire Place,23.63108733,58.26316404,https://www.google.com/maps?q=23.63108733,https://www.airbnb.com/rooms/1294193655574504597,Muscat,Muscat Governorate,Oman,2,4,6157.83,55.14,18.73,4.14,7
Nice apartment of one bedroom in the heart of muscat at muscat hills area apposite to the airport an,Entire Place,23.57564,58.29798,https://www.google.com/maps?q=23.57564,https://www.airbnb.com/rooms/27067823,Muscat,Muscat Governorate,Oman,1,2,75.19,25.64,0.47,4.59,37
The luxury lounge,Entire Place,23.5843,58.41,https://www.google.com/maps?q=23.5843,https://www.airbnb.com/rooms/1114513275620776518,Muscat,Muscat Governorate,Oman,2,2,4044.68,41.12,16.16,5,11
Elegant/Spacious/Mountian View Apartment OGP52,Entire Place,23.54962,58.63693,https://www.google.com/maps?q=23.54962,https://www.airbnb.com/rooms/669452531364904746,Qantab,Muscat Governorate,Oman,2,2,3825.94,78.37,8.64,4.65,37
Deluxe Apartment,Entire Place,23.57881377,58.33710939,https://www.google.com/maps?q=23.57881377,https://www.airbnb.com/rooms/1425949454196954029,Muscat,Muscat Governorate,Oman,1,1,119.13,31.29,1.58,,1
#➊ Best Value In Muscat,Entire Place,23.59697,58.39011,https://www.google.com/maps?q=23.59697,https://www.airbnb.com/rooms/22393028,Muscat,Muscat Governorate,Oman,1,1,3228.32,17.27,32.15,4.99,102
Large 1 Bedroom Apt. in Bousher,Entire Place,23.55449,58.40005,https://www.google.com/maps?q=23.55449,https://www.airbnb.com/rooms/894671066220076522,Muscat,Muscat Governorate,Oman,1,1,3513.46,17.68,33.08,4.88,8
Nice place with amenities and outdoor seating,Private Room,23.598,58.3855,https://www.google.com/maps?q=23.598,https://www.airbnb.com/rooms/31892415,Muscat,Muscat Governorate,Oman,0,1,124.99,7.01,3.5,4.85,103
Luxury Apartment near the beach,Entire Place,23.6011,58.4005,https://www.google.com/maps?q=23.6011,https://www.airbnb.com/rooms/1137732887341553363,Muscat,Muscat Governorate,Oman,1,0,7240.77,29.51,42.18,4.99,94
Heavenly Qantab,Entire Place,23.5544,58.62569,https://www.google.com/maps?q=23.5544,https://www.airbnb.com/rooms/27317763,Qantab,Muscat Governorate,Oman,2,2,5105.16,28.67,29.58,4.78,217
Cozy Apartments with Magnificent view in Muscat,Entire Place,23.5678,58.38555,https://www.google.com/maps?q=23.5678,https://www.airbnb.com/rooms/558606018594516195,Muscat,Muscat Governorate,Oman,1,3,1288.01,26.79,8.28,4.74,19
Prestine Beach and Comfortable Apartment OGP2901,Entire Place,23.5613,58.628,https://www.google.com/maps?q=23.5613,https://www.airbnb.com/rooms/831845607011601445,Qantab,Muscat Governorate,Oman,2,3,4343.49,36.2,19.49,4.33,15
Wonderful flat,Entire Place,23.6173,58.5572,https://www.google.com/maps?q=23.6173,https://www.airbnb.com/rooms/1204058037728358375,Muscat,Muscat Governorate,Oman,3,6,104.49,24.48,0.64,,1
Entire Apartment in Mazaya Complex Muscat,Entire Place,23.6011,58.2422,https://www.google.com/maps?q=23.6011,https://www.airbnb.com/rooms/1382165011219757316,Muscat,Muscat Governorate,Oman,1,2,133.78,19.88,1.34,,1
One Bedroom Apartment Muscat Bay,Entire Place,23.54145,58.64554,https://www.google.com/maps?q=23.54145,https://www.airbnb.com/rooms/791881256708025489,Muttrah,Muscat Governorate,Oman,1,2,3411.9,53.47,10.21,5,4
Spacious 2BR | Walk to Souk & Cafés | SuperHost,Entire Place,23.46923582,58.47909036,https://www.google.com/maps?q=23.46923582,https://www.airbnb.com/rooms/23849062,Muscat,Muscat Governorate,Oman,2,2,119.13,14.02,1.46,4.5,34
Sunrise Apartment Ruwi,Entire Place,23.59165,58.54313,https://www.google.com/maps?q=23.59165,https://www.airbnb.com/rooms/1083869469026269279,Muscat,Muscat Governorate,Oman,2,1,1091.73,20.19,8.93,4.86,7
Old Muscat - Sidab 2,Private Room,23.60504,58.59815,https://www.google.com/maps?q=23.60504,https://www.airbnb.com/rooms/32391946,Muscat,Muscat Governorate,Oman,1,1,700.15,7.12,16.28,4.9,30
Elmar Villa - Muscat Bay,Entire Place,23.5507,58.6393,https://www.google.com/maps?q=23.5507,https://www.airbnb.com/rooms/1394834855890696859,Muscat,Muscat Governorate,Oman,5,6,17396.41,144.08,18.38,4.95,21
Modern Fully Furnished Apartment,Entire Place,23.63743,58.11187,https://www.google.com/maps?q=23.63743,https://www.airbnb.com/rooms/42638453,Seeb,Muscat Governorate,Oman,2,3,1909.06,18.63,17.27,4.82,17
Cozy Azaibah Gateaway,Entire Place,23.5909,58.3607,https://www.google.com/maps?q=23.5909,https://www.airbnb.com/rooms/1387884230888649463,Muscat,Muscat Governorate,Oman,1,1,653.28,27.73,4.78,4.88,40
Private Room with Dedicated Bathroom,Private Room,23.60191,58.37275,https://www.google.com/maps?q=23.60191,https://www.airbnb.com/rooms/718702416692045184,Muscat,Muscat Governorate,Oman,0,2,1828.99,9.63,31.62,4.82,96
Apartment for rent in the Wave,Entire Place,23.62796,58.26953,https://www.google.com/maps?q=23.62796,https://www.airbnb.com/rooms/910601813944982033,Muscat,Muscat Governorate,Oman,1,2,2268.42,38.82,10.21,4.35,20
A big room in the center of Muscat,Private Room,23.5878,58.38196,https://www.google.com/maps?q=23.5878,https://www.airbnb.com/rooms/1502058197020231179,Muscat,Muscat Governorate,Oman,0,1,458.96,12.66,15.11,5,9
"Cozy apartment, beach, Outdoor",Entire Place,23.59825276,58.38071523,https://www.google.com/maps?q=23.59825276,https://www.airbnb.com/rooms/1391414928475699149,Muscat,Muscat Governorate,Oman,3,3,576.14,35.26,2.57,5,6
Delightful flat- superb views & breakfast,Private Room,23.5008,58.3449,https://www.google.com/maps?q=23.5008,https://www.airbnb.com/rooms/1174291125247633682,Falaj Ash-Sham,Muscat Governorate,Oman,2,3,208,13.71,2.57,5,6
Sea View Room In Yoga Retreat,Private Room,23.5625,58.6291,https://www.google.com/maps?q=23.5625,https://www.airbnb.com/rooms/1060022397745260517,Qantab,Muscat Governorate,Oman,1,2,4018.31,57.13,12.14,4.77,22
A room with 3 beds in Qantab village,Private Room,23.56118,58.62621,https://www.google.com/maps?q=23.56118,https://www.airbnb.com/rooms/564172447414405860,Qantab,Muscat Governorate,Oman,1,3,287.09,13.71,3.5,4.73,15
Furnished apartment in the center of Al Khuwair,Entire Place,23.59131859,58.43662876,https://www.google.com/maps?q=23.59131859,https://www.airbnb.com/rooms/1479563672301422802,Muscat,Muscat Governorate,Oman,2,3,287.09,17.68,6.65,4.08,12
Lotus Prime apartment in Muscat Qurum + free Wifi,Entire Place,23.62149,58.50254,https://www.google.com/maps?q=23.62149,https://www.airbnb.com/rooms/40229718,Muscat,Muscat Governorate,Oman,2,4,71.28,35.47,0.35,4.89,56
Prestine Beach/Spacious/Comfortable Villa OGP1352,Entire Place,23.56193,58.62919,https://www.google.com/maps?q=23.56193,https://www.airbnb.com/rooms/1077891699731801640,Qantab,Muscat Governorate,Oman,4,7,7603.06,82.35,16.28,4.4,20
2-BDR Qurum flat near shops and restaurants,Entire Place,23.62263,58.5032,https://www.google.com/maps?q=23.62263,https://www.airbnb.com/rooms/1337454625527101913,Muscat,Muscat Governorate,Oman,2,2,1297.77,30.87,7.06,5,3
Pinnacle Row – Modern 3-Bedroom Haven,Entire Place,23.60350368,58.34328818,https://www.google.com/maps?q=23.60350368,https://www.airbnb.com/rooms/1297767994300874144,Muscat,Muscat Governorate,Oman,2,2,1086.85,31.08,6.42,4,5
chill vibe place,Entire Place,23.578,58.2966,https://www.google.com/maps?q=23.578,https://www.airbnb.com/rooms/1146800741360285044,Muscat,Muscat Governorate,Oman,1,2,163.08,25.43,1.11,,1
Modern 1BHK Getaway Near PDO,Entire Place,23.6213,58.5007,https://www.google.com/maps?q=23.6213,https://www.airbnb.com/rooms/1252489917590992080,Muscat,Muscat Governorate,Oman,1,1,4522.19,24.59,31.97,4.94,16
Unique & Elegant Penthouse ~ Sea & Pool View,Entire Place,23.63021,58.27064,https://www.google.com/maps?q=23.63021,https://www.airbnb.com/rooms/877565238069091442,Muscat,Muscat Governorate,Oman,1,1,10798.18,45.41,40.9,4.92,111
Al Maha sweet 1 BHK apt,Entire Place,23.56489,58.41393,https://www.google.com/maps?q=23.56489,https://www.airbnb.com/rooms/1056552317628072016,Muscat,Muscat Governorate,Oman,1,1,872.99,28.98,5.13,4.86,14
Prestine Beach and Comfortable Apartment OGP2902,Entire Place,23.56057,58.6287,https://www.google.com/maps?q=23.56057,https://www.airbnb.com/rooms/832586254821891620,Qantab,Muscat Governorate,Oman,2,3,3635.52,34.01,17.74,4.65,48
Marina View Lovely cozy 1BR Apt,Entire Place,23.63051,58.26363,https://www.google.com/maps?q=23.63051,https://www.airbnb.com/rooms/839665971467669779,Muscat,Muscat Governorate,Oman,1,1,7863.78,40.49,31.62,4.69,71
One bedroom apartment 1,Entire Place,23.56047,58.40923,https://www.google.com/maps?q=23.56047,https://www.airbnb.com/rooms/1133801354623041896,Muscat,Muscat Governorate,Oman,1,2,7266.16,23.33,43,4.87,63
Pinnacle Row comfort corner,Entire Place,23.60152904,58.39821659,https://www.google.com/maps?q=23.60152904,https://www.airbnb.com/rooms/1413754063749246068,Muscat,Muscat Governorate,Oman,1,1,3127.74,26.26,20.48,4.17,12
Otium,Entire Place,23.56166,58.62974,https://www.google.com/maps?q=23.56166,https://www.airbnb.com/rooms/1164538964918502152,Qantab,Muscat Governorate,Oman,2,3,7615.75,66.86,19.66,4.93,29
Sea Breeze Pvt Room + Beachfront,Private Room,23.5734,58.611,https://www.google.com/maps?q=23.5734,https://www.airbnb.com/rooms/557727087869434842,Muscat,Muscat Governorate,Oman,0,2,1310.47,18.1,11.67,5,35
"Flat-2bedrooms,3 bathrooms,kitchen, swimming pool",Entire Place,23.57592,58.29962,https://www.google.com/maps?q=23.57592,https://www.airbnb.com/rooms/50457100,Muscat,Muscat Governorate,Oman,2,3,353.49,37.15,1.58,4.75,4
"The Edge Villa, a home for your magical moments",Entire Place,23.54892,58.6581,https://www.google.com/maps?q=23.54892,https://www.airbnb.com/rooms/623060549343777770,Muttrah,Muscat Governorate,Oman,3,3,2294.78,312.76,1.28,2.33,3
Modern Luxurious 1BR | Penthouse BLISS,Entire Place,23.61083,58.23744,https://www.google.com/maps?q=23.61083,https://www.airbnb.com/rooms/1109567373346085208,Al Seeb,Muscat Governorate,Oman,1,2,714.8,34.43,3.5,4.89,19
Qantab “The View” Penthouse,Entire Place,23.55775,58.62511,https://www.google.com/maps?q=23.55775,https://www.airbnb.com/rooms/37874815,Qantab,Muscat Governorate,Oman,2,2,1412.02,43.95,5.43,4.96,27
"Heart of Muscat,Home Away From Home II",Entire Place,23.57307,58.4128,https://www.google.com/maps?q=23.57307,https://www.airbnb.com/rooms/631471748356802930,Muscat,Muscat Governorate,Oman,1,1,2028.2,45.94,7.99,4.86,14
Marine Garden apartment Almouj,Entire Place,23.63007,58.2734,https://www.google.com/maps?q=23.63007,https://www.airbnb.com/rooms/1063498605028398735,Muscat,Muscat Governorate,Oman,1,1,1750.87,45.1,6.53,5,8
New and good space apartment for tourists,Entire Place,23.62563,58.12899,https://www.google.com/maps?q=23.62563,https://www.airbnb.com/rooms/53332016,Seeb,Muscat Governorate,Oman,2,5,193.35,25.01,1.46,4.78,9
11.5-Free airport transfer | Snorkeling,Private Room,23.62246688,58.48960031,https://www.google.com/maps?q=23.62246688,https://www.airbnb.com/rooms/1436010644356181679,Muscat,Muscat Governorate,Oman,1,1,232.41,14.96,4.14,4.86,7
The Walk Flat,Entire Place,23.62906,58.26898,https://www.google.com/maps?q=23.62906,https://www.airbnb.com/rooms/53677714,Muscat,Muscat Governorate,Oman,1,1,9212.34,51.8,28.94,4.85,66
Muchioni's Inn (2-bedrooms) near Mall of Muscat,Entire Place,23.627,58.1423,https://www.google.com/maps?q=23.627,https://www.airbnb.com/rooms/1455637513915205589,Al Seeb,Muscat Governorate,Oman,2,3,651.33,23.86,7.99,4.93,29
1 bedroom apt. - FREE laundry - 5 min beach,Entire Place,23.59919053,58.37747204,https://www.google.com/maps?q=23.59919053,https://www.airbnb.com/rooms/1273843652962729425,Muscat,Muscat Governorate,Oman,1,1,377.91,25.95,2.57,,1
Hala apartment,Entire Place,23.5307,58.4595,https://www.google.com/maps?q=23.5307,https://www.airbnb.com/rooms/917990091264782685,Muttrah,Muscat Governorate,Oman,3,4,2248.89,16.22,23.98,4.78,18
Serenity House,Private Room,23.6005,58.4591,https://www.google.com/maps?q=23.6005,https://www.airbnb.com/rooms/609421801471113226,Muscat,Muscat Governorate,Oman,3,3,637.66,86.33,3.38,5,3
Delightful flat - superb views and breakfast,Private Room,23.4989,58.3446,https://www.google.com/maps?q=23.4989,https://www.airbnb.com/rooms/1252806981865001991,Falaj Ash-Sham,Muscat Governorate,Oman,0,1,204.09,13.5,2.57,5,3
One Bedroom Apartment in Muscat Grand Mall,Entire Place,23.591,58.414,https://www.google.com/maps?q=23.591,https://www.airbnb.com/rooms/1056933621719981918,Muscat,Muscat Governorate,Oman,1,1,36.13,34.84,0.18,5,9
"Muscat, Bawshar, Al Maha Street, Ramla Bawshar",Entire Place,23.5783,58.4194,https://www.google.com/maps?q=23.5783,https://www.airbnb.com/rooms/1044149950846560372,Muscat,Muscat Governorate,Oman,2,3,817.33,27.1,5.13,,2
LUX | Cozy modern style one bedroom,Private Room,23.65056,58.1246,https://www.google.com/maps?q=23.65056,https://www.airbnb.com/rooms/20835028,Seeb,Muscat Governorate,Oman,1,1,203.11,18.31,1.93,4.76,29
Contemporary art for upscale living,Entire Place,23.5867,58.3709,https://www.google.com/maps?q=23.5867,https://www.airbnb.com/rooms/1410152474456123158,Muscat,Muscat Governorate,Oman,1,1,284.16,33.17,2.86,5,5
Comfy 2BHK,Entire Place,23.62106327,58.20136719,https://www.google.com/maps?q=23.62106327,https://www.airbnb.com/rooms/1420061054897746741,Seeb,Muscat Governorate,Oman,2,2,1364.18,40.91,6.07,,2
Old Muscat - private room 1,Private Room,23.6163,58.58863,https://www.google.com/maps?q=23.6163,https://www.airbnb.com/rooms/1136876090536547519,Muscat,Muscat Governorate,Oman,0,1,699.18,12.45,9.57,4.69,26
Luxury Condo in alMouj 1 bedroom,Entire Place,23.6303,58.2716,https://www.google.com/maps?q=23.6303,https://www.airbnb.com/rooms/811303395771071640,Muscat,Muscat Governorate,Oman,1,1,5452.8,48.34,19.37,4.71,73
"Downtown Muscat, near the airport, a private room in an apartment",Private Room,23.58757,58.36552,https://www.google.com/maps?q=23.58757,https://www.airbnb.com/rooms/808642875555173925,Muscat,Muscat Governorate,Oman,0,2,2177.6,12.24,29.87,4.97,117
Bedroom inside an apartment near the airport,Private Room,23.587,58.365,https://www.google.com/maps?q=23.587,https://www.airbnb.com/rooms/1344416368831529366,Muscat,Muscat Governorate,Oman,0,1,326.15,8.58,6.53,4.47,19
Luxury & Comfy backyard ~ 2BHK (Airport),Entire Place,23.57341827,58.29721783,https://www.google.com/maps?q=23.57341827,https://www.airbnb.com/rooms/1363286388903279360,Muscat,Muscat Governorate,Oman,2,4,5288.74,40.49,21.12,4.39,46
Budget Room in Gorgeous Retreat,Private Room,23.5625,58.6291,https://www.google.com/maps?q=23.5625,https://www.airbnb.com/rooms/1141825257838747521,Qantab,Muscat Governorate,Oman,1,2,3445.1,30.45,18.73,4.73,26
Comfortable/Clean and Affordable Studio OGP1796,Private Room,23.59259,58.44177,https://www.google.com/maps?q=23.59259,https://www.airbnb.com/rooms/28217924,Muscat,Muscat Governorate,Oman,0,1,1100.52,10.05,18.55,4.57,114
One bedroom apartment 3,Entire Place,23.55774,58.40274,https://www.google.com/maps?q=23.55774,https://www.airbnb.com/rooms/1288186760120277923,Muscat,Muscat Governorate,Oman,1,2,4999.7,22.81,35.18,4.82,17
Family-friendly villa in Seeb Muscat – kids toys,Entire Place,23.6006,58.2229,https://www.google.com/maps?q=23.6006,https://www.airbnb.com/rooms/1325423226059613753,Mawalih,Muscat Governorate,Oman,4,8,4790.73,58.91,15.17,4.8,5
Quiet and Clean Room in Al Mawaleh South,Private Room,23.5992,58.2098,https://www.google.com/maps?q=23.5992,https://www.airbnb.com/rooms/1279140313425270436,Al Seeb,Muscat Governorate,Oman,0,2,114.25,8.68,2.22,4.75,4
"Al Hail Villa, Small Room",Private Room,23.6207,58.2346,https://www.google.com/maps?q=23.6207,https://www.airbnb.com/rooms/1282496883533127650,Al Hail South,Muscat Governorate,Oman,0,2,462.86,10.88,7.06,5,4
Chic 1BR|Pool &Walkable Hotspots,Entire Place,23.6303,58.2716,https://www.google.com/maps?q=23.6303,https://www.airbnb.com/rooms/1344263457644011558,Seeb,Muscat Governorate,Oman,1,1,7365.77,58.81,18.85,5,36
Bait Rawiyah: a house in old Mutrah neighborhood,Entire Place,23.6098,58.5836,https://www.google.com/maps?q=23.6098,https://www.airbnb.com/rooms/1341946675820512030,Mutrah,Muscat Governorate,Oman,1,0,1145.44,53.57,3.91,5,19
Sunrise apartment,Entire Place,23.56156,58.62916,https://www.google.com/maps?q=23.56156,https://www.airbnb.com/rooms/50981419,Qantab,Muscat Governorate,Oman,3,2,5209.65,29.82,30.4,4.84,99
The Cozy Marsa,Entire Place,23.63177,58.26531,https://www.google.com/maps?q=23.63177,https://www.airbnb.com/rooms/948370869071622182,Muscat,Muscat Governorate,Oman,2,3,7689.97,45.62,27.95,4.6,60
Sea View Luxury Villa 2,Entire Place,23.54654,58.65627,https://www.google.com/maps?q=23.54654,https://www.airbnb.com/rooms/39290724,Muttrah,Muscat Governorate,Oman,4,4,1912.97,215.24,1.58,4.82,11
Arabian Night Nook - Flower Meadow,Private Room,23.6221,58.487,https://www.google.com/maps?q=23.6221,https://www.airbnb.com/rooms/1021659335645071701,Muscat,Muscat Governorate,Oman,0,1,1998.9,24.69,13.42,4.5,4
2Bedroom apt close to QurumPark,Entire Place,23.6211,58.5019,https://www.google.com/maps?q=23.6211,https://www.airbnb.com/rooms/1120196181840663475,Muscat,Muscat Governorate,Oman,2,3,3918.71,27.73,24.45,4.8,41
Luxury Flat Near Muscat Mall,Entire Place,23.63553,58.14045,https://www.google.com/maps?q=23.63553,https://www.airbnb.com/rooms/1092851136129210532,Al Seeb,Muscat Governorate,Oman,2,9,288.07,29.19,1.58,4.71,24
Mazoon Cozy Flat,Entire Place,23.61426,58.20226,https://www.google.com/maps?q=23.61426,https://www.airbnb.com/rooms/1058607493544983912,Seeb,Muscat Governorate,Oman,2,3,1871.96,26.47,11.2,4.56,9
Marina view Luxury studio,Entire Place,23.63283,58.27231,https://www.google.com/maps?q=23.63283,https://www.airbnb.com/rooms/1207790708995363011,Al Seeb,Muscat Governorate,Oman,1,0,1304.61,77.33,2.57,4.8,5
Modern authentic apartment,Entire Place,23.5773,58.29803,https://www.google.com/maps?q=23.5773,https://www.airbnb.com/rooms/918549675735514776,Muscat,Muscat Governorate,Oman,1,1,446.26,22.92,3.38,,1
Unique Penthouse ~ Spectacular City View (Airport),Entire Place,23.57589,58.29845,https://www.google.com/maps?q=23.57589,https://www.airbnb.com/rooms/575833083203471837,Muscat,Muscat Governorate,Oman,1,1,3492.95,42.06,14.53,4.83,75
One Luxury Bed Room Studio in Qurum,Entire Place,23.62276,58.50485,https://www.google.com/maps?q=23.62276,https://www.airbnb.com/rooms/12564257,Muscat,Muscat Governorate,Oman,1,1,39.06,40.81,0.18,,2
Garden Retreat in Qantab,Entire Place,23.55955,58.6317,https://www.google.com/maps?q=23.55955,https://www.airbnb.com/rooms/28531305,Qantab,Muscat Governorate,Oman,3,4,5387.37,44.58,19.2,4.93,76
"New, internet, parking, beach",Entire Place,23.59883,58.38119,https://www.google.com/maps?q=23.59883,https://www.airbnb.com/rooms/1240702268901159915,Muscat,Muscat Governorate,Oman,1,1,3106.26,21.03,25.09,5,14
“The balcony” sea view,Entire Place,23.6415,58.2405,https://www.google.com/maps?q=23.6415,https://www.airbnb.com/rooms/1461844962558840139,Al Seeb,Muscat Governorate,Oman,1,1,234.36,20.82,3.56,4.8,5
Apartment in Muscat,Entire Place,23.57710596,58.29866022,https://www.google.com/maps?q=23.57710596,https://www.airbnb.com/rooms/1249698010066271852,Muscat,Muscat Governorate,Oman,1,1,1202.08,44.99,4.78,5,6
Splendid Villa at Muscat Bay,Entire Place,23.5473,58.6181,https://www.google.com/maps?q=23.5473,https://www.airbnb.com/rooms/1231028533578782392,Al Bustan,Muscat Governorate,Oman,4,6,13321.46,177.57,13.24,5,4
Otium 2,Entire Place,23.5628,58.6294,https://www.google.com/maps?q=23.5628,https://www.airbnb.com/rooms/1219398562533703265,Qantab,Muscat Governorate,Oman,2,3,5917.61,67.49,15.34,4.5,10
Partition rooms without window. Shared bathroom,Private Room,23.60042478,58.35662052,https://www.google.com/maps?q=23.60042478,https://www.airbnb.com/rooms/1341299408068503205,Muscat,Muscat Governorate,Oman,0,1,67.38,4.5,2.51,4.57,14
Stylish Apartment with a Jacuzzi (Park&Pool View),Entire Place,23.54765,58.63681,https://www.google.com/maps?q=23.54765,https://www.airbnb.com/rooms/571026580016358285,Qantab,Muscat Governorate,Oman,1,3,7879.41,60.38,20.13,4.99,80
Studio with 2 beds and sofabed,Shared Room,23.59689206,58.35737976,https://www.google.com/maps?q=23.59689206,https://www.airbnb.com/rooms/851723803095834133,Muscat,Muscat Governorate,Oman,1,3,15.62,8.06,0.29,,1
Premium| Luxury 2BHK Suite | Terrace Balcony,Entire Place,23.65108,58.12679,https://www.google.com/maps?q=23.65108,https://www.airbnb.com/rooms/20834983,Seeb,Muscat Governorate,Oman,2,3,450.17,28.25,2.74,4.6,42
"#➊ 1BHK Near Airport, Pool, Parking",Entire Place,23.5764,58.299,https://www.google.com/maps?q=23.5764,https://www.airbnb.com/rooms/1075377417392508140,Muscat,Muscat Governorate,Oman,1,2,4615.93,43.63,17.27,4.85,68
Night apartments,Entire Place,23.51162879,58.50206627,https://www.google.com/maps?q=23.51162879,https://www.airbnb.com/rooms/1288369648086943770,Al Amerat,Muscat Governorate,Oman,2,3,505.83,16.32,4.96,,2
Spacious Aprt in the City-Suitable for Families,Entire Place,23.61676,58.49917,https://www.google.com/maps?q=23.61676,https://www.airbnb.com/rooms/30032763,Muscat,Muscat Governorate,Oman,2,2,5613.92,35.16,24.8,4.81,89
Muscat Hills Luxury apartment,Entire Place,23.57577,58.29692,https://www.google.com/maps?q=23.57577,https://www.airbnb.com/rooms/815280765454743001,Muscat,Muscat Governorate,Oman,1,2,3405.07,31.18,18.73,4.91,23
Finbar and Friends,Private Room,23.60365,58.4039,https://www.google.com/maps?q=23.60365,https://www.airbnb.com/rooms/793142401349753570,Muscat,Muscat Governorate,Oman,2,2,224.6,16.95,2.39,5,8
"3-Bed Apartment in Qurum, Muscat",Entire Place,23.62644717,58.49104699,https://www.google.com/maps?q=23.62644717,https://www.airbnb.com/rooms/1301716512109316049,Muscat,Muscat Governorate,Oman,3,3,4200.92,73.87,9.74,,1
Alghubrah two bedroom apartment,Entire Place,23.58253535,58.39562327,https://www.google.com/maps?q=23.58253535,https://www.airbnb.com/rooms/1459388885659073792,Muscat,Muscat Governorate,Oman,2,3,174.79,22.92,2.57,,1
Guest room in Qantab village,Private Room,23.56096,58.62728,https://www.google.com/maps?q=23.56096,https://www.airbnb.com/rooms/38668187,Qantab,Muscat Governorate,Oman,0,1,298.81,11.3,4.61,4.85,52
Comfortable/Clean and Affordable Place OGP1797,Private Room,23.59363,58.44254,https://www.google.com/maps?q=23.59363,https://www.airbnb.com/rooms/866317012612995357,Muscat,Muscat Governorate,Oman,0,1,904.24,7.43,19.95,4.4,42
Welcome to your home in a lively neighborhood close to every service,Entire Place,23.5211,58.5025,https://www.google.com/maps?q=23.5211,https://www.airbnb.com/rooms/1074401346163880101,Al Amerat,Muscat Governorate,Oman,2,3,1543.85,20.09,12.95,5,4
Deluxe bedroom,Private Room,23.6029,58.3655,https://www.google.com/maps?q=23.6029,https://www.airbnb.com/rooms/2400288,Muscat,Muscat Governorate,Oman,1,2,122.06,15.8,1.46,4.59,141
Oceana 1 BHK Beach Apartment,Entire Place,23.60136064,58.39975941,https://www.google.com/maps?q=23.60136064,https://www.airbnb.com/rooms/1307235023215026514,Muscat,Muscat Governorate,Oman,1,1,2644.37,31.08,14.06,4.94,18
One-bedroom,Entire Place,23.62092,58.20246,https://www.google.com/maps?q=23.62092,https://www.airbnb.com/rooms/823608651305734451,Seeb,Muscat Governorate,Oman,1,1,2631.68,33.69,13.59,4.6,5
"Free transfer, Snorkeling & Paddle board gears",Private Room,23.62300674,58.48947343,https://www.google.com/maps?q=23.62300674,https://www.airbnb.com/rooms/1291139481260648414,Muscat,Muscat Governorate,Oman,1,3,153.31,18,1.58,4.75,4
24 Hujra Apartment,Entire Place,23.6039,58.2466,https://www.google.com/maps?q=23.6039,https://www.airbnb.com/rooms/1135136816187894329,Muscat,Muscat Governorate,Oman,2,3,5181.33,24.59,36.29,4.8,66
One bedroom apartment 2,Entire Place,23.5617,58.4089,https://www.google.com/maps?q=23.5617,https://www.airbnb.com/rooms/1239514298234336410,Muscat,Muscat Governorate,Oman,1,3,7508.34,23.75,44.93,4.94,49
3 bedroom flat in Qurum near shops and restaurants,Entire Place,23.62144,58.50292,https://www.google.com/maps?q=23.62144,https://www.airbnb.com/rooms/1337346989317827678,Muscat,Muscat Governorate,Oman,3,3,3873.79,37.36,17.27,4.83,18
"Flat in Mabela 2 rooms, hall, 2 toilets, kitchen",Entire Place,23.59269,58.41862,https://www.google.com/maps?q=23.59269,https://www.airbnb.com/rooms/20439807,Muscat,Muscat Governorate,Oman,2,3,27.34,28.57,0.18,,
Bait Al Raha.,Entire Place,23.6443611,58.23711179,https://www.google.com/maps?q=23.6443611,https://www.airbnb.com/rooms/1314385829971667753,Al Hail North,Muscat Governorate,Oman,4,7,4245.84,143.04,4.61,,2
OGP1792-Comfortable/Clean and Affordable Apartment,Entire Place,23.59364,58.44243,https://www.google.com/maps?q=23.59364,https://www.airbnb.com/rooms/876571891809250244,Muscat,Muscat Governorate,Oman,1,1,849.56,8.58,15.81,2.83,6
nice room in a beautiful Villa close to the beach,Private Room,23.59437,58.25191,https://www.google.com/maps?q=23.59437,https://www.airbnb.com/rooms/26813695,Muscat,Muscat Governorate,Oman,2,2,159.17,23.54,1.11,4.86,21
Premium 2BHK | Modern Design,Entire Place,23.62032864,58.26043617,https://www.google.com/maps?q=23.62032864,https://www.airbnb.com/rooms/1501952221594592626,Al Seeb,Muscat Governorate,Oman,2,2,1545.81,44.58,14.7,4.9,20
Cozy 1 Bedroom next to market and restaurants,Entire Place,23.46887129,58.47690529,https://www.google.com/maps?q=23.46887129,https://www.airbnb.com/rooms/38689441,Al Amarat,Muscat Governorate,Oman,1,1,267.56,9.42,4.96,4.62,26
OGP1795 Comfortable/Clean and Affordable Place,Private Room,23.59356863,58.44186,https://www.google.com/maps?q=23.59356863,https://www.airbnb.com/rooms/1336714280710107800,Muscat,Muscat Governorate,Oman,0,1,698.2,6.7,13.59,4,15
Village + Breakfast,Private Room,23.5734,58.611,https://www.google.com/maps?q=23.5734,https://www.airbnb.com/rooms/970786988453393192,Muscat,Muscat Governorate,Oman,0,1,577.11,16.32,5.78,4.9,10
"The Palm Apartment - Al Mouj , Muscat!",Entire Place,23.62112,58.25976,https://www.google.com/maps?q=23.62112,https://www.airbnb.com/rooms/1312983835434165779,Al Hail North,Muscat Governorate,Oman,2,2,6435.16,37.56,29.11,4.98,42
Old Omani home.,Private Room,23.59679,58.60153,https://www.google.com/maps?q=23.59679,https://www.airbnb.com/rooms/16887117,Muscat,Muscat Governorate,Oman,2,2,446.26,71.47,1.11,5,41
Private room,Private Room,23.5918,58.4038,https://www.google.com/maps?q=23.5918,https://www.airbnb.com/rooms/999670933248262232,Muscat,Muscat Governorate,Oman,0,1,451.14,7.74,9.74,4.57,42
House Village Oman,Private Room,23.56042,58.62619,https://www.google.com/maps?q=23.56042,https://www.airbnb.com/rooms/37097186,Qantab,Muscat Governorate,Oman,1,1,95.7,11.3,1.46,4.89,62
Matrah Heart,Shared Room,23.61368,58.54717,https://www.google.com/maps?q=23.61368,https://www.airbnb.com/rooms/891719430223367733,Muscat,Muscat Governorate,Oman,0,1,118.16,4.19,4.96,4.96,26
Pinnacle Row – Cityscape Haven,Entire Place,23.6006,58.4001,https://www.google.com/maps?q=23.6006,https://www.airbnb.com/rooms/1074496231903390106,Muscat,Muscat Governorate,Oman,2,3,1462.8,43.95,6.07,4.4,10
Muscat Hills/Cozy pool view PH 1BHK/Self check-in,Entire Place,23.57608,58.29911,https://www.google.com/maps?q=23.57608,https://www.airbnb.com/rooms/47298488,Muscat,Muscat Governorate,Oman,1,1,1262.62,39.66,5.6,4.99,67
In the heart of Muscat!!,Private Room,23.598,58.3855,https://www.google.com/maps?q=23.598,https://www.airbnb.com/rooms/32568483,Muscat,Muscat Governorate,Oman,0,1,190.42,10.57,3.68,4.78,120
Furnished Apartment,Entire Place,23.6213,58.5023,https://www.google.com/maps?q=23.6213,https://www.airbnb.com/rooms/1109233749050973992,Muscat,Muscat Governorate,Oman,1,1,219.71,24.48,1.46,,1
"Bait Misfa
Your home away from home in Muscat",Entire Place,23.62705855,58.25067983,https://www.google.com/maps?q=23.62705855,https://www.airbnb.com/rooms/1316535025429596576,Al Hail North,Muscat Governorate,Oman,3,4,10531.59,70.84,25.44,5,5
"Qurum 2-BDR flat with parking, Shops & Restaurants",Entire Place,23.62385539,58.50303944,https://www.google.com/maps?q=23.62385539,https://www.airbnb.com/rooms/1159938238407149317,Muscat,Muscat Governorate,Oman,2,3,3129.69,36.52,14.88,4.75,44
"Qurum 2 BDR flat with parking, shops & restaurants",Entire Place,23.62375,58.50327,https://www.google.com/maps?q=23.62375,https://www.airbnb.com/rooms/959252180837428954,Muscat,Muscat Governorate,Oman,2,3,1762.59,33.48,8.46,4.71,21
Azure.,Entire Place,23.57643,58.29928,https://www.google.com/maps?q=23.57643,https://www.airbnb.com/rooms/1304032821230620675,Muscat,Muscat Governorate,Oman,1,1,2135.61,41.65,8.81,4.91,11
Browny room and Comfy place,Private Room,23.6841,58.1123,https://www.google.com/maps?q=23.6841,https://www.airbnb.com/rooms/1032550694953055429,Seeb,Muscat Governorate,Oman,0,1,161.12,12.77,2.22,5,7
Yasmeen Garden and Hostel,Entire Place,23.5687,58.1173,https://www.google.com/maps?q=23.5687,https://www.airbnb.com/rooms/962414236207149026,Al Khawd village,Muscat Governorate,Oman,2,4,738.24,120.65,0.93,,2
Tranquil 2-Bed Sanctuary,Entire Place,23.5958,58.3478,https://www.google.com/maps?q=23.5958,https://www.airbnb.com/rooms/1058348162372899931,Muscat,Muscat Governorate,Oman,2,0,8377.42,44.37,29.23,4.81,52
NOVA Apartment,Entire Place,23.63337067,58.13730816,https://www.google.com/maps?q=23.63337067,https://www.airbnb.com/rooms/1357379028625767007,Al Seeb,Muscat Governorate,Oman,2,3,498.99,26.68,3.38,4.8,5
Shaliya Rukn Al Yasmeen,Entire Place,23.6047,58.2187,https://www.google.com/maps?q=23.6047,https://www.airbnb.com/rooms/1432666182243500465,Al Seeb,Muscat Governorate,Oman,2,3,683.55,45.31,4.08,4.5,12
Heritage Hostel Muscat,Shared Room,23.5929,58.403,https://www.google.com/maps?q=23.5929,https://www.airbnb.com/rooms/1085738609399867590,Muscat,Muscat Governorate,Oman,0,4,11.72,4.29,0.47,5,3
Comfortable Clean and Affordable Apartment OGP35,Entire Place,23.58480305,58.42371566,https://www.google.com/maps?q=23.58480305,https://www.airbnb.com/rooms/984792734762098813,Muscat,Muscat Governorate,Oman,2,3,62.5,32.44,0.53,3.75,16
Prime Location Apartment at Muscat Grand Mall,Entire Place,23.5904,58.4125,https://www.google.com/maps?q=23.5904,https://www.airbnb.com/rooms/585765385674253241,Muscat,Muscat Governorate,Oman,1,4,9471.11,43.01,37.87,4.78,82
"almoaj ,juman 2 marina view,level 3",Entire Place,23.6303,58.271,https://www.google.com/maps?q=23.6303,https://www.airbnb.com/rooms/1286062475402765797,Muscat,Muscat Governorate,Oman,1,3,5217.46,109.87,9.45,4.71,7
Flat in Muscat,Entire Place,23.5868,58.44568,https://www.google.com/maps?q=23.5868,https://www.airbnb.com/rooms/1120268014381536421,Muscat,Muscat Governorate,Oman,1,0,452.12,41.96,1.93,,2
luxury apartment,Entire Place,23.57438,58.29749,https://www.google.com/maps?q=23.57438,https://www.airbnb.com/rooms/50435216,Muscat,Muscat Governorate,Oman,2,3,30.27,32.86,0.18,,1
Furnished apartment with hotel system,Entire Place,23.5822,58.396,https://www.google.com/maps?q=23.5822,https://www.airbnb.com/rooms/1081850941606584674,Muscat,Muscat Governorate,Oman,2,3,409.16,24.69,2.86,4.5,38
Top floor apartment with a magical view,Entire Place,23.59793983,58.43458863,https://www.google.com/maps?q=23.59793983,https://www.airbnb.com/rooms/1464574259456650798,Muscat,Muscat Governorate,Oman,1,1,450.17,31.91,4.67,5,20
Room in Town House,Private Room,23.62951,58.27059,https://www.google.com/maps?q=23.62951,https://www.airbnb.com/rooms/4895559,Muscat,Muscat Governorate,Oman,0,1,291.97,36.83,1.28,5,4
Qurum 1-bedroom apartment near shops & restaurants,Entire Place,23.6232,58.502,https://www.google.com/maps?q=23.6232,https://www.airbnb.com/rooms/621693316736830258,Muscat,Muscat Governorate,Oman,1,1,2258.65,30.66,12.78,4.82,33
Hostel Erfan,Private Room,23.60011756,58.35690379,https://www.google.com/maps?q=23.60011756,https://www.airbnb.com/rooms/1315842174014557289,Muscat,Muscat Governorate,Oman,0,2,260.73,8.58,5.13,4.72,32
Chic & Cozy 1 BHK ~ Sea & Pool View (Beach Access),Entire Place,23.62872,58.27109,https://www.google.com/maps?q=23.62872,https://www.airbnb.com/rooms/1136345151979252888,Muscat,Muscat Governorate,Oman,1,0,7808.12,43.74,30.4,4.81,47
"Muscat Hills Avenue

Private Aprtmnt
Pool, Parking",Entire Place,23.5785,58.3001,https://www.google.com/maps?q=23.5785,https://www.airbnb.com/rooms/1186566033869809153,Muscat,Muscat Governorate,Oman,1,1,5418.62,22.92,38.97,5,42
Rust Time Luxury Apartment for Daily Rent,Entire Place,23.5643,58.4202,https://www.google.com/maps?q=23.5643,https://www.airbnb.com/rooms/920969129129556464,Muscat,Muscat Governorate,Oman,2,3,1644.43,27.94,10.09,3.57,7
Modern Stylish ~ Pool & Sea View (Beach Access),Entire Place,23.63028153,58.27128693,https://www.google.com/maps?q=23.63028153,https://www.airbnb.com/rooms/1319718170417027488,Muscat,Muscat Governorate,Oman,1,1,8346.18,47.09,30.22,4.97,36
The Harmony House,Private Room,23.5966,58.4327,https://www.google.com/maps?q=23.5966,https://www.airbnb.com/rooms/1322100291604861504,Muscat,Muscat Governorate,Oman,0,1,366.19,14.02,4.49,4.88,16
Lovely 2 Bed Apartment Near the Beach,Entire Place,23.6002,58.4008,https://www.google.com/maps?q=23.6002,https://www.airbnb.com/rooms/1019445072151526891,Muscat,Muscat Governorate,Oman,2,4,12057.87,42.69,46.38,4.9,83
"Vittoria Muscat
Luxurious PH In a Central Location",Entire Place,23.5587,58.4023,https://www.google.com/maps?q=23.5587,https://www.airbnb.com/rooms/1428475914597663177,Muscat,Muscat Governorate,Oman,1,2,332.99,31.39,3.56,5,5
Standard Room,Private Room,23.58831,58.38399,https://www.google.com/maps?q=23.58831,https://www.airbnb.com/rooms/969367948068782807,Muscat,Muscat Governorate,Oman,1,1,297.83,18.83,2.74,4.43,14
Flat opposite Muscat mall,Entire Place,23.6467,58.1502,https://www.google.com/maps?q=23.6467,https://www.airbnb.com/rooms/1376160112827795495,Al Seeb,Muscat Governorate,Oman,1,1,544.89,14.44,7.93,5,3
Prestine Beach and Comfortable Cottage OGP2904,Entire Place,23.56232,58.62848,https://www.google.com/maps?q=23.56232,https://www.airbnb.com/rooms/831840703244599749,Qantab,Muscat Governorate,Oman,1,1,2932.44,27,17.91,4.52,50
Netalah Villa,Entire Place,23.56391,58.38221,https://www.google.com/maps?q=23.56391,https://www.airbnb.com/rooms/16522373,Muscat,Muscat Governorate,Oman,4,7,690.39,64.98,1.58,4.5,20
Elite apart 1 with a glance of Omani culture,Entire Place,23.59585,58.43434,https://www.google.com/maps?q=23.59585,https://www.airbnb.com/rooms/42799266,Muscat,Muscat Governorate,Oman,1,2,885.69,33.07,3.68,4.95,21
Al Zumorod Luxury Villa,Entire Place,23.68333,58.15019,https://www.google.com/maps?q=23.68333,https://www.airbnb.com/rooms/32249542,Seeb,Muscat Governorate,Oman,3,5,11485.64,60.27,32.91,4.76,88
"Muscat, Muscat",Private Room,23.58782882,58.38347165,https://www.google.com/maps?q=23.58782882,https://www.airbnb.com/rooms/810580836547772344,Muscat,Muscat Governorate,Oman,1,1,20.51,8.79,0.47,,
Art house II,Private Room,23.60089003,58.23853155,https://www.google.com/maps?q=23.60089003,https://www.airbnb.com/rooms/1371123693570635446,Al Seeb,Muscat Governorate,Oman,0,2,34.18,13.08,0.58,5,6
Sunshine Villa close to the beach,Entire Place,23.68351,58.15768,https://www.google.com/maps?q=23.68351,https://www.airbnb.com/rooms/38967959,Seeb,Muscat Governorate,Oman,3,4,4599.33,61.53,12.6,4.81,16
Arabian Night Nook - Dune grass,Private Room,23.6221,58.487,https://www.google.com/maps?q=23.6221,https://www.airbnb.com/rooms/1021679065270606778,Muscat,Muscat Governorate,Oman,0,2,1281.17,24.38,8.81,5,3
3-BDR Qurum flat near shops and restaurants,Entire Place,23.62235,58.50325,https://www.google.com/maps?q=23.62235,https://www.airbnb.com/rooms/1337399424802840612,Muscat,Muscat Governorate,Oman,3,3,4317.12,39.97,17.45,4.93,30
Sea View Luxury Villa 1,Entire Place,23.54617,58.65696,https://www.google.com/maps?q=23.54617,https://www.airbnb.com/rooms/35340692,Muttrah,Muscat Governorate,Oman,4,4,1943.24,213.25,1.46,4.82,11
"Penthouse, terrace, Wi-Fi, beach",Entire Place,23.59853,58.37728,https://www.google.com/maps?q=23.59853,https://www.airbnb.com/rooms/52340773,Muscat,Muscat Governorate,Oman,2,3,3287.89,46.88,10.09,5,4
"3-Bedroom flat with parking, shops & restaurants .",Entire Place,23.62307,58.50195,https://www.google.com/maps?q=23.62307,https://www.airbnb.com/rooms/640606562690795735,Muscat,Muscat Governorate,Oman,3,4,6249.62,41.85,25.26,4.81,70
Nice and clean apartment,Entire Place,23.6225,58.5016,https://www.google.com/maps?q=23.6225,https://www.airbnb.com/rooms/1364211638074990227,Muscat,Muscat Governorate,Oman,1,1,49.8,26.05,0.35,4.9,10
3 Bedroom plus hall in a sports complex community,Entire Place,23.62456,58.24526,https://www.google.com/maps?q=23.62456,https://www.airbnb.com/rooms/1191683250796872543,Al Hail North,Muscat Governorate,Oman,3,8,272.44,35.47,0.82,,1
Private Luxury 1BHK  Apartment at Bosher,Entire Place,23.5621,58.4191,https://www.google.com/maps?q=23.5621,https://www.airbnb.com/rooms/1401880410324109021,Muscat,Muscat Governorate,Oman,1,1,916.94,22.81,9.92,5,4
Emiri Villa for Daily Rent,Entire Place,23.6138,58.5883,https://www.google.com/maps?q=23.6138,https://www.airbnb.com/rooms/921054394532910218,Muscat,Muscat Governorate,Oman,4,5,404.27,109.66,0.64,4.7,10
Bait Rashid - Beachside,Entire Place,23.5626,58.6286,https://www.google.com/maps?q=23.5626,https://www.airbnb.com/rooms/28471170,Qantab,Muscat Governorate,Oman,2,6,10674.16,43.84,38.86,4.98,211
"Durra Al-Ghabra for furnished apartments, three rooms, two bedrooms",Entire Place,23.59114475,58.40152428,https://www.google.com/maps?q=23.59114475,https://www.airbnb.com/rooms/1305506590869094805,Muscat,Muscat Governorate,Oman,2,3,182.61,24.59,1.4,,2
2BR Luxurious Flat with City & Dune View,Entire Place,23.5645,58.4046,https://www.google.com/maps?q=23.5645,https://www.airbnb.com/rooms/1433908043897617028,Muscat,Muscat Governorate,Oman,2,3,1022.4,31.5,8.28,4.9,31
Luxurious Apartment in Qurum (PDO),Entire Place,23.6236,58.5038,https://www.google.com/maps?q=23.6236,https://www.airbnb.com/rooms/1073135369879620655,Muscat,Muscat Governorate,Oman,1,1,2529.14,30.55,15.05,4.81,16
Stylish Luxe ~ Pool & Sea View (Beach Access),Entire Place,23.6299,58.2718,https://www.google.com/maps?q=23.6299,https://www.airbnb.com/rooms/1411015023251894179,Seeb,Muscat Governorate,Oman,1,1,4556.37,41.96,18.2,4.87,23
Pinnacle Row Elegance Escape,Entire Place,23.60214301,58.40018811,https://www.google.com/maps?q=23.60214301,https://www.airbnb.com/rooms/1433435267956408154,Muscat,Muscat Governorate,Oman,1,1,2867.99,24.59,19.49,4.08,13
Apartment in Muscat Hills,Entire Place,23.57777953,58.29982289,https://www.google.com/maps?q=23.57777953,https://www.airbnb.com/rooms/1391165458192249862,Muscat,Muscat Governorate,Oman,1,1,415.99,31.7,2.86,5,4
Modernistic Two Bedroom Apartment,Entire Place,23.66213,58.17177,https://www.google.com/maps?q=23.66213,https://www.airbnb.com/rooms/963433718434855304,Seeb,Muscat Governorate,Oman,2,3,3613.06,17.27,35.65,4.55,20
The Gray Cozy Flat,Entire Place,23.62905,58.26523,https://www.google.com/maps?q=23.62905,https://www.airbnb.com/rooms/828747415511301115,Muscat,Muscat Governorate,Oman,2,4,3201.96,62.36,8.93,4.87,39
A Big Room/attached bathroom/center Muscat/seaside,Private Room,23.59674,58.3655,https://www.google.com/maps?q=23.59674,https://www.airbnb.com/rooms/1230238261851248052,Muscat,Muscat Governorate,Oman,0,1,3158.01,12.45,43.82,4.89,36
Apartment in Muscat,Entire Place,23.6124,58.4641,https://www.google.com/maps?q=23.6124,https://www.airbnb.com/rooms/1398305456112201532,Muscat,Muscat Governorate,Oman,2,3,1429.6,36.2,12.6,4.68,22
Guests House Muscat,Entire Place,23.55948,58.62618,https://www.google.com/maps?q=23.55948,https://www.airbnb.com/rooms/36118401,Qantab,Muscat Governorate,Oman,1,1,1399.33,12.87,18.55,4.88,117
Comfortable/Clean and Affordable Studio OGP1863,Private Room,23.58968,58.44164,https://www.google.com/maps?q=23.58968,https://www.airbnb.com/rooms/42898136,Muscat,Muscat Governorate,Oman,0,1,25.39,8.06,0.47,4.3,37
"Brand new apartment
With a nice view balcony.",Entire Place,23.62869737,58.26782739,https://www.google.com/maps?q=23.62869737,https://www.airbnb.com/rooms/1376653648565730577,Muscat,Muscat Governorate,Oman,1,1,1098.57,46.04,6.13,4,9
Amazing 2BR pent house flat with mountain view,Entire Place,23.51009,58.4841,https://www.google.com/maps?q=23.51009,https://www.airbnb.com/rooms/26734187,Al Amerat,Muscat Governorate,Oman,2,3,2282.09,18.73,19.49,4.76,25
sea view azaiba,Private Room,23.5936,58.3708,https://www.google.com/maps?q=23.5936,https://www.airbnb.com/rooms/1334476477097091995,Muscat,Muscat Governorate,Oman,0,1,662.07,9.1,10.39,4.83,6
Elegant and well-equipped room,Private Room,23.62043897,58.50007494,https://www.google.com/maps?q=23.62043897,https://www.airbnb.com/rooms/1330925890517306058,Muscat,Muscat Governorate,Oman,0,1,2827.95,10.57,45.57,4.98,45
Private apartment in Bouchard,Entire Place,23.5649,58.4173,https://www.google.com/maps?q=23.5649,https://www.airbnb.com/rooms/855146540198852490,Muscat,Muscat Governorate,Oman,1,1,226.55,24.59,1.58,4.71,7
"Charming One-Bedroom Apartment in Muscat, Oman",Entire Place,23.5743,58.4134,https://www.google.com/maps?q=23.5743,https://www.airbnb.com/rooms/1260745767389827769,Muscat,Muscat Governorate,Oman,1,2,1714.74,35.05,8.28,4.96,55
Cozy & modern 2BR APT Muscat DT,Entire Place,23.5873,58.4356,https://www.google.com/maps?q=23.5873,https://www.airbnb.com/rooms/1354638152079766199,Muscat,Muscat Governorate,Oman,2,3,5024.11,35.99,23.16,5,64
Karibu private studio / villa in Muscat,Entire Place,23.59946,58.36269,https://www.google.com/maps?q=23.59946,https://www.airbnb.com/rooms/11499264,Muscat,Muscat Governorate,Oman,1,1,107.42,18.42,0.93,4.47,73
Stylish apartment in the center,Entire Place,23.63453,58.13912,https://www.google.com/maps?q=23.63453,https://www.airbnb.com/rooms/1205516219330290286,Al Mabelah,Muscat Governorate,Oman,2,3,293.93,23.33,2.22,,1
2Bedroom Flat /Ghubrah,Entire Place,23.59157,58.40269,https://www.google.com/maps?q=23.59157,https://www.airbnb.com/rooms/1201274135209723167,Muscat,Muscat Governorate,Oman,2,1,365.21,26.89,2.39,,1
Chalet with a sea view,Entire Place,23.67723936,58.19963771,https://www.google.com/maps?q=23.67723936,https://www.airbnb.com/rooms/1362467098856691914,Al Seeb,Muscat Governorate,Oman,3,5,3680.44,115.73,6.48,4.79,19
Yiti Villa,Entire Place,23.50999,58.66461,https://www.google.com/maps?q=23.50999,https://www.airbnb.com/rooms/680489425539128179,Yiti,Muscat Governorate,Oman,2,3,10085.33,98.67,16.92,4.83,24
Cozy Apartment,Private Room,23.5867,58.3701,https://www.google.com/maps?q=23.5867,https://www.airbnb.com/rooms/1257699667165150675,Muscat,Muscat Governorate,Oman,0,1,201.16,8.48,3.97,4.92,36
Apartment in the heart of Muscat near an airport,Entire Place,23.58317098,58.36946575,https://www.google.com/maps?q=23.58317098,https://www.airbnb.com/rooms/1391118247365522521,Muscat,Muscat Governorate,Oman,2,3,371.07,26.26,3.09,,2
Royal Villa for Daily Rent,Entire Place,23.6144,58.5896,https://www.google.com/maps?q=23.6144,https://www.airbnb.com/rooms/907971158554917164,Muscat,Muscat Governorate,Oman,5,5,8863.72,129.75,11.96,4.86,14
"Luxury 1-bedroom Apt. @ The Walk, Almouj, The Wave",Entire Place,23.62802,58.26519,https://www.google.com/maps?q=23.62802,https://www.airbnb.com/rooms/43489823,Muscat,Muscat Governorate,Oman,1,1,9145.93,44.05,34.19,4.92,63
Studio near Airport & Mall of Oman | Self Check-In,Private Room,23.53737034,58.35816957,https://www.google.com/maps?q=23.53737034,https://www.airbnb.com/rooms/1424469379866169597,Muscat,Muscat Governorate,Oman,0,1,84.96,8.68,3.33,,1
Muscat Hills/ Cozy pool view 1 BHK/ Self Check In,Entire Place,23.5767,58.30269,https://www.google.com/maps?q=23.5767,https://www.airbnb.com/rooms/852564434130266142,Muscat,Muscat Governorate,Oman,1,1,3853.28,36.2,17.91,4.97,34
Elegant/Spacious/Resort View Apartment OGP58,Entire Place,23.54902,58.63438,https://www.google.com/maps?q=23.54902,https://www.airbnb.com/rooms/602703878926477906,Qantab,Muscat Governorate,Oman,1,1,3084.78,48.45,11.2,4.85,27
villa in the wave muscat,Entire Place,23.6299,58.266,https://www.google.com/maps?q=23.6299,https://www.airbnb.com/rooms/16988031,Muscat,Muscat Governorate,Oman,2,4,8897.9,76.18,19.66,4.87,83
Arcadia Muscat,Entire Place,23.5607,58.6315,https://www.google.com/maps?q=23.5607,https://www.airbnb.com/rooms/1361279797425623610,Muscat,Muscat Governorate,Oman,2,2,1906.14,41.96,8.46,5,20
luxury one bedroom apartment,Entire Place,23.6228,58.2495,https://www.google.com/maps?q=23.6228,https://www.airbnb.com/rooms/1116708724431524271,Hail Al Awamir,Muscat Governorate,Oman,1,1,35.15,37.46,0.18,5,4
privateroom with privatebathroom,Private Room,23.61467713,58.2494434,https://www.google.com/maps?q=23.61467713,https://www.airbnb.com/rooms/1468952862330280535,Muscat,Muscat Governorate,Oman,1,3,112.3,8.06,5.78,4.29,14
3-BDR Qurum flat near shops and restaurants.,Entire Place,23.62233,58.5035,https://www.google.com/maps?q=23.62233,https://www.airbnb.com/rooms/1337379488026026017,Muscat,Muscat Governorate,Oman,3,3,686.48,36.41,3.03,,2
apartment for Group people,Entire Place,23.61412935,58.49808045,https://www.google.com/maps?q=23.61412935,https://www.airbnb.com/rooms/1420948062441018927,Muscat,Muscat Governorate,Oman,3,4,2194.2,42.06,9.1,,1
Good place to rest,Private Room,23.59814,58.3579,https://www.google.com/maps?q=23.59814,https://www.airbnb.com/rooms/1200649562360027355,Muscat,Muscat Governorate,Oman,1,1,11.72,6.59,0.29,4.67,3
Muscat Bay–Luxurious Residence&Escape in Paradise!,Entire Place,23.5419,58.6467,https://www.google.com/maps?q=23.5419,https://www.airbnb.com/rooms/1147450454481950017,Muttrah,Muscat Governorate,Oman,2,4,4259.51,71.26,10.39,5,8
Sunsand Guesthouse,Entire Place,23.59604,58.39853,https://www.google.com/maps?q=23.59604,https://www.airbnb.com/rooms/41310840,Muscat,Muscat Governorate,Oman,1,2,2968.57,25.95,19.2,4.98,54
Peaceful room| cozy stay,Private Room,23.6008,58.3939,https://www.google.com/maps?q=23.6008,https://www.airbnb.com/rooms/999064468177014114,Muscat,Muscat Governorate,Oman,0,2,2434.42,11.09,37.75,4.87,60
The Cozy Retreat apartment,Entire Place,23.6244,58.5032,https://www.google.com/maps?q=23.6244,https://www.airbnb.com/rooms/944109757900026933,Muscat,Muscat Governorate,Oman,1,2,4574.92,31.7,24.91,4.72,36
Albustan villa 2,Entire Place,23.5747,58.609,https://www.google.com/maps?q=23.5747,https://www.airbnb.com/rooms/1321590613859934974,Muscat,Muscat Governorate,Oman,4,4,571.25,71.68,1.28,,2
"Muscat Dunes Apartment, Building 423",Entire Place,23.55713761,58.40419867,https://www.google.com/maps?q=23.55713761,https://www.airbnb.com/rooms/1284720091861944793,Muscat,Muscat Governorate,Oman,1,2,5062.2,29.19,29.87,4.92,61
Cozy & VERY Private 1bedroom flat,Entire Place,23.5909,58.4135,https://www.google.com/maps?q=23.5909,https://www.airbnb.com/rooms/1245599194138168338,Muscat,Muscat Governorate,Oman,1,1,7146.05,35.37,34.37,4.97,37
Centeraly located new 1 bedroom flat in Muscat,Entire Place,23.57366,58.41334,https://www.google.com/maps?q=23.57366,https://www.airbnb.com/rooms/22509570,Muscat,Muscat Governorate,Oman,1,1,8999.46,34.63,44.75,4.96,137
LUX| Modern classic style 3 BHK,Entire Place,23.65224,58.12658,https://www.google.com/maps?q=23.65224,https://www.airbnb.com/rooms/20835586,Seeb,Muscat Governorate,Oman,3,5,1035.09,34.84,5.13,4.66,29
Home away from home,Entire Place,23.62941417,58.26662785,https://www.google.com/maps?q=23.62941417,https://www.airbnb.com/rooms/931416213320170490,Muscat,Muscat Governorate,Oman,2,3,2061.4,42.48,7.82,5,33
