Listing ID,Name,Airbnb URL,Latitude,Longitude,Google Maps URL,Property Type,Room Type,Bedrooms,Bathrooms,Accommodates,Rating (out of 100),Reviews,Host ID,Host Name,Host Listings Count,Minimum Nights,Cancellation Policy,Cleaning Fee (USD),Extra People Fee (USD),Avg Daily Rate LTM (USD),Avg Occupancy Rate LTM (%),Annual Revenue LTM (USD),Revenue Potential (USD),Active Days LTM,Number of Bookings LTM,Allows Pets,Has License,License,Added On,Last Seen,LTM Performance Last Updated,Amenities - Parking,Amenities - Hot Tub,Amenities - Gym,Amenities - Pets,Amenities - Dryer,Amenities - Washer,Amenities - Pool,Amenities - Kitchen,Amenities - AC,Amenities - WiFi,Amenities - Heating,Amenities - TV,Amenities - BBQ Grill,Amenities - Fireplace,Amenities - Breakfast,Amenities - Beachfront,Amenities - Amazing Views,Booking.com URL,VRBO URL,Photo URL
27317763,Heavenly Qantab,https://airbnb.com/rooms/27317763,23.5544,58.62569,"https://www.google.com/maps?q=23.5544,58.62569",Entire rental unit,entire_home,2,1,4,100,212,205820235,Ahmed,8,1,f,8,,74,67,18241,18241,365,18,0,f,,,1/16/2026,,Yes,No,No,No,Yes,Yes,No,Yes,Yes,Yes,Yes,Yes,Yes,No,No,Yes,Yes,,,https://a0.muscache.com/im/pictures/72905fb6-caca-490b-a05c-d9459fa36dfb.jpg?aki_policy=large
808642875555173925,وسط المدينه مسقط ،قريب المطار غرفة خاصة في شقة,https://airbnb.com/rooms/808642875555173925,23.58757,58.36552,"https://www.google.com/maps?q=23.58757,58.36552",Private room in condo,private_room,1,2,2,100,116,484942411,Hassan,,1,m,0,5,30,61,6680,6680,365,28,0,f,,2/23/2023,1/16/2026,,Yes,No,No,No,Yes,Yes,No,Yes,Yes,Yes,Yes,Yes,No,No,No,No,No,,,https://a0.muscache.com/im/pictures/365f11f3-0ae1-48cb-b986-12e73398704b.jpg?aki_policy=large
877565238069091442,Unique & Elegant Penthouse ~ Sea & Pool View,https://airbnb.com/rooms/877565238069091442,23.63021,58.27064,"https://www.google.com/maps?q=23.63021,58.27064",Entire rental unit,entire_home,1,2,2,100,109,273843938,Luxurious Residence,,1,f,0,,112,81,33113,33113,365,29,,f,,5/22/2023,1/16/2026,,Yes,Yes,Yes,Yes,Yes,Yes,Yes,Yes,Yes,Yes,Yes,Yes,Yes,No,No,No,Yes,,,https://a0.muscache.com/im/pictures/miso/Hosting-877565238069091442/original/a8818f31-1de2-4482-91e3-8d679d0e3bb3.jpeg?aki_policy=large
895732447958034582,Luxurious Flat  in Ghubrah beach,https://airbnb.com/rooms/895732447958034582,23.601,58.4,"https://www.google.com/maps?q=23.601,58.4",Entire condo,entire_home,2,5,5,100,106,502336150,Bader,,2,m,0,,105,77,29510,29510,365,22,,f,,7/31/2023,1/16/2026,,Yes,Yes,Yes,Yes,Yes,Yes,Yes,Yes,Yes,Yes,Yes,Yes,No,No,No,Yes,No,,,https://a0.muscache.com/im/pictures/hosting/Hosting-895732447958034582/original/6d42f8ab-2a2f-4c54-a4e9-3eeaa42bacab.jpeg?aki_policy=large
911500681478107995,Luxury Apartment in Boshar,https://airbnb.com/rooms/911500681478107995,23.57351,58.41219,"https://www.google.com/maps?q=23.57351,58.41219",Entire rental unit,entire_home,1,2,2,100,103,505924375,Yousef,,1,f,0,52,82,50,14965,14965,365,30,0,f,,7/31/2023,1/16/2026,,Yes,No,Yes,No,Yes,Yes,Yes,Yes,Yes,Yes,No,Yes,Yes,No,No,No,No,,,https://a0.muscache.com/im/pictures/miso/Hosting-911500681478107995/original/c6e5768d-1b3f-47e4-8d89-826e8f2604af.jpeg?aki_policy=large
50981419,Sunrise apartment,https://airbnb.com/rooms/50981419,23.56156,58.62916,"https://www.google.com/maps?q=23.56156,58.62916",Entire rental unit,entire_home,3,2,4,100,94,171534241,Abdullah,8,1,f,0,,70,78,19929,19929,365,25,0,f,,9/21/2021,1/16/2026,,Yes,No,No,No,No,Yes,No,Yes,Yes,Yes,Yes,Yes,No,No,No,No,Yes,,,https://a0.muscache.com/im/pictures/0e9a503d-a462-4a4e-a707-f11767c42f5d.jpg?aki_policy=large
917588119502356047,Muscat Governorate Matrah's mandate Port District,https://airbnb.com/rooms/917588119502356047,23.624,58.561,"https://www.google.com/maps?q=23.624,58.561",Entire rental unit,entire_home,2,2,4,100,93,517858478,Essa,,1,m,0,,57,60,12483,12483,365,15,0,f,,7/31/2023,1/16/2026,,Yes,No,No,No,No,No,No,Yes,Yes,Yes,No,Yes,No,No,No,Yes,No,,,https://a0.muscache.com/im/pictures/689877e6-7e28-4cec-ad45-fe81136e7698.jpg?aki_policy=large
32249542,Al Zumorod Luxury Villa,https://airbnb.com/rooms/32249542,23.68333,58.15019,"https://www.google.com/maps?q=23.68333,58.15019",Entire villa,entire_home,3,5,6,100,85,235417501,Ameera,1,2,f,0,,142,76,39391,39391,365,18,0,f,,,1/16/2026,,Yes,Yes,No,No,Yes,Yes,Yes,Yes,Yes,Yes,Yes,Yes,Yes,No,No,Yes,Yes,,,https://a0.muscache.com/im/pictures/hosting/Hosting-32249542/original/8fcba380-083e-4ce2-8f63-2fbca6a71b8b.jpeg?aki_policy=large
53677714,The Walk Flat,https://airbnb.com/rooms/53677714,23.62906,58.26898,"https://www.google.com/maps?q=23.62906,58.26898",Entire condo,entire_home,1,2,4,100,66,434715654,TheFlat,4,1,f,39,260,127,69,33077,33077,365,28,,f,,1/6/2022,1/16/2026,,Yes,Yes,No,Yes,Yes,Yes,Yes,Yes,Yes,Yes,Yes,Yes,No,No,No,No,No,,,https://a0.muscache.com/im/pictures/56d246b6-30b5-4760-b474-1d375ae36146.jpg?aki_policy=large
1133801354623041896,One bedroom apartment 1,https://airbnb.com/rooms/1133801354623041896,23.56047,58.40923,"https://www.google.com/maps?q=23.56047,58.40923",Entire rental unit,entire_home,1,1,3,100,63,202748922,Mohammed,,1,s,26,,61,88,20191,20191,365,23,,f,,4/23/2024,1/16/2026,,Yes,No,Yes,Yes,Yes,Yes,Yes,Yes,Yes,Yes,Yes,Yes,Yes,No,No,No,No,,,https://a0.muscache.com/im/pictures/hosting/Hosting-1133801354623041896/original/2d89da74-4e51-45d7-be53-d300c75e1a2d.jpeg?aki_policy=large
831840703244599749,Prestine Beach and Comfortable Cottage OGP2904,https://airbnb.com/rooms/831840703244599749,23.56232,58.62848,"https://www.google.com/maps?q=23.56232,58.62848",Entire cottage,entire_home,1,1,4,90,50,45785295,Vincent,,1,f,26,26,63,45,11180,11180,365,32,,f,,5/22/2023,1/16/2026,,Yes,No,No,Yes,Yes,Yes,No,Yes,Yes,Yes,Yes,Yes,Yes,Yes,No,No,No,,,https://a0.muscache.com/im/pictures/miso/Hosting-831840703244599749/original/d7fda9a4-261e-49f4-9bd4-8bb32b9893d8.jpeg?aki_policy=large
866317012612995357,Comfortable/Clean and Affordable Place OGP1797,https://airbnb.com/rooms/866317012612995357,23.59363,58.44254,"https://www.google.com/maps?q=23.59363,58.44254",Private room in home,private_room,1,1,3,90,40,45785295,Vincent,,1,f,26,10,21,54,4763,4763,365,24,0,f,,5/22/2023,1/16/2026,,Yes,No,No,No,Yes,Yes,No,Yes,Yes,Yes,Yes,Yes,Yes,No,No,No,No,,,https://a0.muscache.com/im/pictures/hosting/Hosting-866317012612995357/original/abc50cc8-010c-4542-9b7d-76315ec930bd.jpeg?aki_policy=large
1120196181840663475,2Bedroom apt close to QurumPark,https://airbnb.com/rooms/1120196181840663475,23.621,58.502,"https://www.google.com/maps?q=23.621,58.502",Entire rental unit,entire_home,2,3,4,100,38,214373574,Ahmed,,1,-1,,,64,55,12848,12848,365,27,0,f,,10/1/2024,1/16/2026,,Yes,No,No,No,Yes,Yes,No,Yes,Yes,Yes,No,Yes,No,No,No,No,No,,,https://a0.muscache.com/im/pictures/miso/Hosting-1120196181840663475/original/9b5941b6-a1f8-47e9-82a6-6e05aaffe1fd.jpeg?aki_policy=large
837544410033473543,Prestine Beach and Comfortable Apartment OGP2903,https://airbnb.com/rooms/837544410033473543,23.56015,58.62746,"https://www.google.com/maps?q=23.56015,58.62746",Entire rental unit,entire_home,2,2,6,90,37,45785295,Vincent,,1,f,26,26,78,57,17060,17060,365,32,,f,,5/22/2023,1/16/2026,,Yes,No,No,Yes,Yes,Yes,No,Yes,Yes,Yes,Yes,Yes,Yes,No,No,No,No,,,https://a0.muscache.com/im/pictures/miso/Hosting-837544410033473543/original/ddbe6d51-2132-409a-804f-9fc621c71a9f.jpeg?aki_policy=large
905758104420694694,"The Balcony/Entire penthouse
Bays and Marine view",https://airbnb.com/rooms/905758104420694694,23.617,58.558,"https://www.google.com/maps?q=23.617,58.558",Entire rental unit,entire_home,1,2,2,90,30,314630767,Tiinaaa,,1,s,0,0,74,50,13505,13505,365,40,0,f,,7/31/2023,1/16/2026,,Yes,No,No,No,No,No,No,Yes,Yes,Yes,Yes,Yes,No,No,No,No,Yes,,,https://a0.muscache.com/im/pictures/3479cc01-e248-41e5-8804-d05ecc10480a.jpg?aki_policy=large
1098248186894487178,Siraj Cozy 5 mins Airport,https://airbnb.com/rooms/1098248186894487178,23.62801,58.26643,"https://www.google.com/maps?q=23.62801,58.26643",Entire rental unit,entire_home,2,2,5,90,26,434715654,TheFlat,,1,f,39,104,128,60,28773,28773,365,19,,f,,3/5/2024,1/2/2026,,Yes,Yes,No,Yes,Yes,Yes,Yes,Yes,Yes,Yes,Yes,Yes,No,No,No,No,No,,,https://a0.muscache.com/im/pictures/hosting/Hosting-1098248186894487178/original/46c6b79e-5d6d-42e5-aa73-b8a2439c49b5.jpeg?aki_policy=large
1191867346508323004,"2 bedrooms,
The wave new wave apartment",https://airbnb.com/rooms/1191867346508323004,23.63071,58.2665,"https://www.google.com/maps?q=23.63071,58.2665",Entire condo,entire_home,2,2,4,100,25,587000545,Hudhaifa,,1,-1,,,136,76,37726,37726,365,24,,f,,8/27/2024,1/16/2026,,Yes,No,No,Yes,No,Yes,Yes,Yes,Yes,Yes,No,Yes,No,No,No,No,No,,,https://a0.muscache.com/im/pictures/hosting/Hosting-1191867346508323004/original/4a9b37de-b3c2-4afa-980f-9519dfeb2226.jpeg?aki_policy=large
1027236139540989495,VIP Villa almouj muscat,https://airbnb.com/rooms/1027236139540989495,23.62607,58.26765,"https://www.google.com/maps?q=23.62607,58.26765",Entire villa,entire_home,4,4,8,100,20,417031083,Abdullah,,1,s,0,,433,35,55316,55316,365,31,0,f,,12/19/2023,1/16/2026,,Yes,Yes,No,No,No,Yes,Yes,Yes,Yes,Yes,No,Yes,No,No,No,No,No,,,https://a0.muscache.com/im/pictures/hosting/Hosting-1027236139540989495/original/98bfbc4a-dc29-4b71-8e51-336c7dcb5d2c.jpeg?aki_policy=large
1109567373346085208,Modern Luxurious 1BR | Penthouse BLISS,https://airbnb.com/rooms/1109567373346085208,23.61083,58.23744,"https://www.google.com/maps?q=23.61083,58.23744",Entire rental unit,entire_home,1,1,3,100,19,566410684,Mazin,,1,-1,,26,88,61,19593,19593,365,28,0,f,,7/9/2024,1/16/2026,,Yes,No,No,No,Yes,No,No,Yes,Yes,Yes,Yes,Yes,Yes,No,No,No,Yes,,,https://a0.muscache.com/im/pictures/hosting/Hosting-U3RheVN1cHBseUxpc3Rpbmc6MTEwOTU2NzM3MzM0NjA4NTIwOA%3D%3D/original/07f18e43-2370-4971-a81a-ee47420f408b.jpeg?aki_policy=large
1176838470579547644,Comfortable/Peaceful/Elegant Apartment,https://airbnb.com/rooms/1176838470579547644,23.586,58.445,"https://www.google.com/maps?q=23.586,58.445",Entire serviced apartment,entire_home,3,3,8,90,18,45785295,Vincent,,1,-1,,26,97,56,19827,19827,365,32,0,f,,6/18/2024,6/6/2025,,Yes,No,Yes,No,Yes,Yes,Yes,Yes,Yes,Yes,Yes,Yes,No,No,No,No,No,,,https://a0.muscache.com/im/pictures/hosting/Hosting-1176838470579547644/original/70861a66-af7e-461c-9ebd-5fdba57e1058.jpeg?aki_policy=large
564172447414405860,A room with 3 beds in Qantab village,https://airbnb.com/rooms/564172447414405860,23.56118,58.62621,"https://www.google.com/maps?q=23.56118,58.62621",Private room in guesthouse,private_room,1,1,3,100,15,171534241,Abdullah,,1,f,0,,32,27,3154,3154,365,6,0,f,,1/17/2023,1/16/2026,,Yes,No,No,No,Yes,Yes,No,Yes,Yes,Yes,Yes,Yes,No,No,No,No,No,,,https://a0.muscache.com/im/pictures/a2cf2cbe-b121-4a49-b40a-252d0ed41f8b.jpg?aki_policy=large
907971158554917164,الفيلا الملكية للإيجار اليومي,https://airbnb.com/rooms/907971158554917164,23.614,58.59,"https://www.google.com/maps?q=23.614,58.59",Entire home,entire_home,5,5,10,100,11,518585480,Asad,,1,m,0,,316,33,38062,38062,365,45,0,f,,12/26/2023,1/16/2026,,Yes,No,No,No,Yes,Yes,No,Yes,Yes,Yes,No,Yes,No,No,No,No,No,,,https://a0.muscache.com/im/pictures/hosting/Hosting-907971158554917164/original/f556006b-b0ea-424f-bc7b-3a175aad5fb5.jpeg?aki_policy=large
1184842776721268532,Oceana Flat,https://airbnb.com/rooms/1184842776721268532,23.60233,58.39983,"https://www.google.com/maps?q=23.60233,58.39983",Entire rental unit,entire_home,1,1,3,90,10,583477151,Ehsan,,1,-1,,,54,83,16359,16359,365,30,0,f,,9/10/2024,1/16/2026,,Yes,No,Yes,No,No,Yes,Yes,Yes,Yes,Yes,No,Yes,No,No,No,No,No,,,https://a0.muscache.com/im/pictures/hosting/Hosting-1184842776721268532/original/3df19282-19b2-4a6b-a994-1194f0515465.jpeg?aki_policy=large
1132538335768639767,Lovely 2BR in Heart of Downtown.,https://airbnb.com/rooms/1132538335768639767,23.57561,58.40607,"https://www.google.com/maps?q=23.57561,58.40607",Entire rental unit,entire_home,2,3,5,80,10,458231856,Sabah,,1,f,0,,85,51,15823,15823,365,23,0,f,,4/23/2024,1/16/2026,,Yes,No,No,No,No,Yes,Yes,Yes,Yes,Yes,No,Yes,No,No,No,No,Yes,,,https://a0.muscache.com/im/pictures/hosting/Hosting-U3RheVN1cHBseUxpc3Rpbmc6MTEzMjUzODMzNTc2ODYzOTc2Nw%3D%3D/original/167462aa-192d-4510-bad4-dc8e9bf32088.jpeg?aki_policy=large
970786988453393192,Village + Breakfast,https://airbnb.com/rooms/970786988453393192,23.573,58.611,"https://www.google.com/maps?q=23.573,58.611",Private room in rental unit,private_room,1,1,3,100,9,634218,Nedal,,1,f,0,13,42,29,4446,4446,365,32,,f,,9/19/2023,1/16/2026,,Yes,No,No,Yes,Yes,Yes,No,Yes,No,Yes,Yes,No,No,No,No,Yes,Yes,,,https://a0.muscache.com/im/pictures/miso/Hosting-970786988453393192/original/0775c26b-247c-4a56-bf54-0e0dffb196a6.png?aki_policy=large
48563194,Mazon Stunning Omani House Near Souq Mutrah,https://airbnb.com/rooms/48563194,23.61812,58.56867,"https://www.google.com/maps?q=23.61812,58.56867",Private room in home,private_room,1,1,4,100,9,391816755,Fort,4,1,s,0,,88,87,27944,27944,365,18,0,f,,9/21/2021,1/16/2026,,Yes,No,No,No,Yes,No,No,Yes,Yes,Yes,Yes,No,No,No,No,No,No,,,https://a0.muscache.com/im/pictures/91644342-a41a-4a65-a7d3-3b04b1fcd33d.jpg?aki_policy=large
970666311429785924,Old Muscat Homestay,https://airbnb.com/rooms/970666311429785924,23.61,58.592,"https://www.google.com/maps?q=23.61,58.592",Private room in guesthouse,private_room,1,1,3,100,9,534934539,Sanaz,,1,f,0,5,35,68,8687,8687,365,34,0,f,,1/9/2024,1/16/2026,,Yes,No,No,No,No,No,No,No,Yes,Yes,No,No,No,No,No,No,No,,,https://a0.muscache.com/im/pictures/miso/Hosting-970666311429785924/original/dfa15952-b333-4cef-968d-0a35a19cc108.jpeg?aki_policy=large
1021679065270606778,Arabian Night Nook - Dune grass,https://airbnb.com/rooms/1021679065270606778,23.622,58.487,"https://www.google.com/maps?q=23.622,58.487",Private room in villa,private_room,1,1,2,100,4,493609593,Majid,,1,f,0,,52,68,12906,12906,365,33,0,f,,3/5/2024,1/16/2026,,Yes,No,No,No,Yes,No,No,Yes,Yes,Yes,No,Yes,No,No,No,No,No,,,https://a0.muscache.com/im/pictures/hosting/Hosting-1021679065270606778/original/f80afb84-cb11-4e20-88da-58d23175d401.jpeg?aki_policy=large
1021681099014195938,Arabian Night Nook - Desert Wind,https://airbnb.com/rooms/1021681099014195938,23.622,58.487,"https://www.google.com/maps?q=23.622,58.487",Private room in villa,private_room,1,1,3,100,3,493609593,Majid,,1,f,0,,54,71,13994,13994,365,30,0,f,,4/9/2024,1/16/2026,,Yes,No,No,No,Yes,No,No,Yes,Yes,Yes,No,Yes,No,No,No,No,No,,,https://a0.muscache.com/im/pictures/hosting/Hosting-1021681099014195938/original/6fdab918-c829-45fd-ba11-66472a56f986.jpeg?aki_policy=large
1131253015212861534,Arabian Night Nook - Al Wadi,https://airbnb.com/rooms/1131253015212861534,23.622,58.487,"https://www.google.com/maps?q=23.622,58.487",Private room in villa,private_room,1,1,2,90,3,493609593,Majid,,1,-1,,,51,58,10797,10797,365,35,0,f,,10/8/2024,1/16/2026,,Yes,No,No,No,Yes,No,No,Yes,Yes,Yes,No,No,No,No,No,No,No,,,https://a0.muscache.com/im/pictures/hosting/Hosting-1131253015212861534/original/e22ebdc1-b398-43ed-8dcc-a9b3d1d82643.jpeg?aki_policy=large
1018003336576752398,apartment for rent,https://airbnb.com/rooms/1018003336576752398,23.62174,58.50265,"https://www.google.com/maps?q=23.62174,58.50265",Entire rental unit,entire_home,2,3,4,0,2,481608025,Talib,,1,f,0,,118,32,13782,13782,365,42,,f,,11/21/2023,1/16/2026,,Yes,No,No,Yes,Yes,Yes,No,Yes,Yes,No,No,Yes,Yes,No,No,No,No,,,https://a0.muscache.com/im/pictures/hosting/Hosting-1018003336576752398/original/74d3b6c8-af63-4074-825e-1245111da95c.jpeg?aki_policy=large
974256532316595440,Cozy Homestay,https://airbnb.com/rooms/974256532316595440,23.61,58.592,"https://www.google.com/maps?q=23.61,58.592",Private room in guesthouse,private_room,1,1,3,0,1,534934539,Sanaz,,1,-1,,5,37,70,9454,9454,365,33,0,f,,11/19/2024,1/16/2026,,Yes,No,No,No,No,No,No,No,Yes,Yes,No,No,No,No,No,No,No,,,https://a0.muscache.com/im/pictures/miso/Hosting-970666311429785924/original/1b214dcd-5652-4bb0-ad31-8c880c4509b8.jpeg?aki_policy=large
985975354286943120,"شاليه ليالي السيب
Nights  Seeb",https://airbnb.com/rooms/985975354286943120,23.67558,58.17608,"https://www.google.com/maps?q=23.67558,58.17608",Entire home,entire_home,2,3,8,0,1,516778772,Yazn Adnan,,1,f,0,,108,17,6701,6701,365,33,0,f,,4/30/2024,1/16/2026,,Yes,No,No,No,No,Yes,Yes,Yes,Yes,Yes,No,Yes,Yes,No,No,No,No,,,https://a0.muscache.com/im/pictures/fde3743f-81dc-4170-b036-9910120e9a29.jpg?aki_policy=large
949641260171344386,مسقط ، الموالح الجنوبية ،,https://airbnb.com/rooms/949641260171344386,23.611,58.228,"https://www.google.com/maps?q=23.611,58.228",Entire home,entire_home,4,4,6,0,1,525080968,Ali,,1,f,0,,81,13,3843,3843,365,33,,f,,12/26/2023,6/6/2025,,Yes,No,No,Yes,No,Yes,No,Yes,Yes,No,No,Yes,No,No,No,No,No,,,https://a0.muscache.com/im/pictures/hosting/Hosting-949641260171344386/original/6d8bb525-ace6-49e3-8e0f-dd9f869d1ba9.jpeg?aki_policy=large
1125304005008983843,Flat with two rooms near beach.,https://airbnb.com/rooms/1125304005008983843,23.66459,58.21681,"https://www.google.com/maps?q=23.66459,58.21681",Entire rental unit,entire_home,2,2,6,0,1,562206250,Morteza,,1,f,0,,57,27,5617,5617,365,39,0,f,,4/9/2024,1/16/2026,,Yes,No,No,No,No,Yes,No,Yes,Yes,Yes,No,Yes,Yes,No,No,No,No,,,https://a0.muscache.com/im/pictures/hosting/Hosting-1125304005008983843/original/bca522e4-62b5-4094-b2d8-7a102d88183c.jpeg?aki_policy=large
970087535391191910,Muscat Apartment for daily rent,https://airbnb.com/rooms/970087535391191910,23.562,58.408,"https://www.google.com/maps?q=23.562,58.408",Private room in rental unit,private_room,1,1,2,0,0,534797709,Basim,,1,-1,,,69,13,3274,3274,365,32,0,f,,10/8/2024,1/16/2026,,Yes,No,No,No,No,No,Yes,Yes,Yes,Yes,No,Yes,No,No,No,No,No,,,https://a0.muscache.com/im/pictures/hosting/Hosting-970087535391191910/original/379410c8-edba-441b-aa01-dab0f5274672.jpeg?aki_policy=large
1058711423560363439,friendly guest place,https://airbnb.com/rooms/1058711423560363439,23.59878,58.38058,"https://www.google.com/maps?q=23.59878,58.38058",Private room in home,private_room,1,1,3,0,0,309644957,Mehdi,,1,f,0,,30,17,1862,1862,365,39,0,f,,1/9/2024,1/16/2026,,Yes,No,No,No,No,Yes,No,Yes,Yes,Yes,No,Yes,No,No,No,No,No,,,https://a0.muscache.com/im/pictures/miso/Hosting-1058711423560363439/original/6ee8939a-a27b-438e-9553-2b29e4f3cab8.jpeg?aki_policy=large
1125598179968745778,Room for Daily and Weekly Rent,https://airbnb.com/rooms/1125598179968745778,23.576,58.412,"https://www.google.com/maps?q=23.576,58.412",Private room in bed and breakfast,private_room,1,1,2,0,0,543873950,Omar,,1,f,0,,23,17,1427,1427,365,43,0,f,,4/16/2024,1/16/2026,,Yes,Yes,No,No,No,Yes,No,Yes,Yes,Yes,No,No,No,No,No,No,No,,,https://a0.muscache.com/im/pictures/hosting/Hosting-1125598179968745778/original/73de3240-834a-496d-b55b-3302ff419052.jpeg?aki_policy=large
1077728073542886616,bed room with share bathroom,https://airbnb.com/rooms/1077728073542886616,23.603,58.443,"https://www.google.com/maps?q=23.603,58.443",Private room in home,private_room,1,1,2,0,0,555044470,Matin,,1,-1,,,26,17,1613,1613,365,39,0,f,,6/18/2024,1/16/2026,,Yes,No,No,No,No,No,No,Yes,Yes,Yes,Yes,Yes,Yes,No,No,No,No,,,https://a0.muscache.com/im/pictures/hosting/Hosting-1077728073542886616/original/d9a6d87f-c33e-4e99-a0ba-34ad1348742e.jpeg?aki_policy=large
1076123925975773574,Spacious Studio Apartment,https://airbnb.com/rooms/1076123925975773574,23.60067,58.3912,"https://www.google.com/maps?q=23.60067,58.3912",Entire rental unit,entire_home,1,1,2,0,0,517485368,Mohammad Faizan,,1,f,0,,44,16,2570,2570,365,40,0,f,,2/13/2024,1/16/2026,,Yes,No,No,No,No,Yes,No,Yes,Yes,Yes,No,Yes,No,No,No,No,No,,,https://a0.muscache.com/im/pictures/miso/Hosting-1076123925975773574/original/4f319a0b-b49d-4a2a-ab07-f8046e6a0d89.jpeg?aki_policy=large
16887117,Old Omani home.,https://airbnb.com/rooms/16887117,23.59679,58.60153,"https://www.google.com/maps?q=23.59679,58.60153",Private room in home,private_room,2,2,2,100,41,78403331,Malik,2,2,s,0,30,179,40,26062,26134,364,41,0,f,,,1/16/2026,,Yes,No,No,No,Yes,No,No,No,Yes,Yes,No,Yes,No,No,Yes,No,No,,,https://a0.muscache.com/im/pictures/30ff93a3-9d9f-49d7-a5c7-3d714eb46114.jpg?aki_policy=large
999670933248262232,Private room,https://airbnb.com/rooms/999670933248262232,23.592,58.404,"https://www.google.com/maps?q=23.592,58.404",Private room in rental unit,private_room,1,1,1,90,41,523691538,Fahimeh,,1,m,8,15.6,21,40,3218,3227,364,20,0,f,,11/8/2023,9/5/2025,,No,No,No,No,Yes,No,No,Yes,Yes,Yes,No,Yes,No,No,No,No,No,,,https://a0.muscache.com/im/pictures/hosting/Hosting-999670933248262232/original/56319134-9433-4ad7-9e7f-19dd7f7450fc.jpeg?aki_policy=large
831845607011601445,Prestine Beach and Comfortable Apartment OGP2901,https://airbnb.com/rooms/831845607011601445,23.561,58.628,"https://www.google.com/maps?q=23.561,58.628",Entire rental unit,entire_home,2,2,6,90,15,45785295,Vincent,,1,f,26,26,84,62,19841,19896,364,34,,f,,5/22/2023,1/16/2026,,Yes,No,No,Yes,Yes,Yes,No,Yes,Yes,Yes,Yes,Yes,Yes,No,No,No,No,,,https://a0.muscache.com/im/pictures/miso/Hosting-831845607011601445/original/e3c4c4d2-9957-489f-985b-7d75f6eae286.jpeg?aki_policy=large
652106029546117186,Spacious room in comfortable villa with yard,https://airbnb.com/rooms/652106029546117186,23.56904,58.38828,"https://www.google.com/maps?q=23.56904,58.38828",Private room in home,private_room,1,2,2,100,9,437463075,Riccardo,,1,f,0,18,61,40,8882,8906,364,42,0,f,,5/22/2023,1/16/2026,,Yes,No,No,No,Yes,Yes,No,Yes,Yes,Yes,No,No,Yes,No,No,Yes,No,,,https://a0.muscache.com/im/pictures/miso/Hosting-652106029546117186/original/cf1afb5e-7c44-4bab-bf65-a00a36b27863.jpeg?aki_policy=large
1026284236438491855,pooya hostel,https://airbnb.com/rooms/1026284236438491855,23.616,58.249,"https://www.google.com/maps?q=23.616,58.249",Room in hotel,private_room,10,1,1,0,2,546853886,Pooya,,1,f,0,0,29,15,1583,1587,364,36,0,f,,11/28/2023,1/16/2026,,Yes,No,No,No,No,Yes,No,Yes,Yes,Yes,No,Yes,Yes,No,No,No,No,,,https://a0.muscache.com/im/pictures/miso/Hosting-1026284236438491855/original/87def31c-d19d-42ca-8c8a-485a19083fad.jpeg?aki_policy=large
718702416692045184,Private Room with Dedicated Bathroom,https://airbnb.com/rooms/718702416692045184,23.60191,58.37275,"https://www.google.com/maps?q=23.60191,58.37275",Private room in condo,private_room,1,1,4,100,95,24368361,Hatem,,3,m,0,8,23,64,5343,5372,363,12,0,f,,1/17/2023,1/16/2026,,Yes,Yes,No,No,Yes,No,No,Yes,Yes,Yes,Yes,Yes,Yes,Yes,No,No,Yes,,,https://a0.muscache.com/im/pictures/hosting/Hosting-718702416692045184/original/a3abae18-b679-4c33-863d-f98ec3746992.jpeg?aki_policy=large
835485757235390519,SeaLife EcoHouse Muscat_Qantab,https://airbnb.com/rooms/835485757235390519,23.562,58.629,"https://www.google.com/maps?q=23.562,58.629",Entire vacation home,entire_home,2,3,5,100,53,351682386,Heiderose,,2,f,50,40,111,56,23464,23593,363,18,,f,,5/22/2023,1/16/2026,,Yes,No,Yes,Yes,Yes,Yes,No,Yes,Yes,Yes,No,No,No,No,No,Yes,Yes,,,https://a0.muscache.com/im/pictures/miso/Hosting-835485757235390519/original/26fdf786-eb38-405d-a0c9-20be065a2b61.jpeg?aki_policy=large
22393028,#➊ Best Value In Muscat,https://airbnb.com/rooms/22393028,23.59697,58.39011,"https://www.google.com/maps?q=23.59697,58.39011",Entire rental unit,entire_home,1,1,2,100,101,147789845,Ahmed,1,2,m,3,9,41,80,11913,12012,362,13,0,f,,,1/16/2026,,Yes,No,Yes,No,Yes,Yes,No,Yes,Yes,Yes,No,No,No,No,Yes,No,No,,,https://a0.muscache.com/im/pictures/cdeb70b6-b96c-4a12-ae70-76a2b17d0a58.jpg?aki_policy=large
1024361751564353528,Lyoan home The wave,https://airbnb.com/rooms/1024361751564353528,23.633,58.267,"https://www.google.com/maps?q=23.633,58.267",Entire rental unit,entire_home,2,2,6,100,39,546428543,Haitham,,2,f,0,0,162,63,36946,37252,362,24,,f,,11/28/2023,1/16/2026,,Yes,No,No,Yes,Yes,Yes,Yes,Yes,Yes,Yes,No,Yes,Yes,Yes,No,No,Yes,,,https://a0.muscache.com/im/pictures/hosting/Hosting-1024361751564353528/original/e3928c08-9c2c-41fd-b874-a8b9ad0b5c22.jpeg?aki_policy=large
42843535,Private Apt + King Bed + Wifi + BeIN TV + Parking*,https://airbnb.com/rooms/42843535,23.59467,58.39269,"https://www.google.com/maps?q=23.59467,58.39269",Entire rental unit,entire_home,2,2,4,100,72,6232201,Loay,3,2,m,55,0,61,90,20314,20539,361,9,0,f,,,1/16/2026,,Yes,No,No,No,Yes,Yes,No,Yes,Yes,Yes,Yes,Yes,No,No,No,No,No,,,https://a0.muscache.com/im/pictures/685ff5ab-f734-4ee4-82ca-e9bc06aa3643.jpg?aki_policy=large
575833083203471837,Unique Penthouse ~ Spectacular City View (Airport),https://airbnb.com/rooms/575833083203471837,23.57589,58.29845,"https://www.google.com/maps?q=23.57589,58.29845",Entire rental unit,entire_home,1,1,2,100,77,273843938,Luxurious Residence,,1,f,0,,102,37,13586,13775,360,32,,f,,1/17/2023,1/16/2026,,Yes,No,No,Yes,Yes,Yes,Yes,Yes,Yes,Yes,Yes,Yes,Yes,No,No,No,Yes,,,https://a0.muscache.com/im/pictures/miso/Hosting-575833083203471837/original/1733372a-3772-4897-a552-2bdf394f3525.jpeg?aki_policy=large
897816981308422944,Cute & New Large Master Bedroom,https://airbnb.com/rooms/897816981308422944,23.62058,58.20259,"https://www.google.com/maps?q=23.62058,58.20259",Private room in rental unit,private_room,1,1,3,90,7,491887453,Seyed,,5,m,5,,29,30,3317,3363,360,37,0,f,,7/31/2023,1/16/2026,,Yes,No,No,No,Yes,Yes,No,Yes,Yes,Yes,Yes,No,No,No,No,No,No,,,https://a0.muscache.com/im/pictures/miso/Hosting-897816981308422944/original/73eb3c35-35b3-4167-a278-023f4196ec78.jpeg?aki_policy=large
999064468177014114,Peaceful room| cozy stay,https://airbnb.com/rooms/999064468177014114,23.601,58.394,"https://www.google.com/maps?q=23.601,58.394",Private room in rental unit,private_room,1,1,2,100,56,532842027,Forough,,1,f,0,13,24,75,6462,6570,359,23,,f,,11/8/2023,1/16/2026,,Yes,No,No,Yes,Yes,No,No,Yes,Yes,Yes,Yes,No,No,No,No,No,No,,,https://a0.muscache.com/im/pictures/hosting/Hosting-999064468177014114/original/aa5b9053-01de-4103-9954-87214dcfd75b.jpeg?aki_policy=large
864947484397161328,"Room in Qurum, Muscat",https://airbnb.com/rooms/864947484397161328,23.62408,58.48978,"https://www.google.com/maps?q=23.62408,58.48978",Private room in rental unit,private_room,1,2,3,100,32,104642451,Said,,3,f,0,,47,71,11846,12180,355,27,0,f,,5/22/2023,1/16/2026,,Yes,No,Yes,No,Yes,Yes,Yes,Yes,Yes,Yes,No,No,No,No,No,No,No,,,https://a0.muscache.com/im/pictures/hosting/Hosting-864947484397161328/original/a45c17b7-bd2d-4e89-8259-d33137414fb5.jpeg?aki_policy=large
832586254821891620,Prestine Beach and Comfortable Apartment OGP2902,https://airbnb.com/rooms/832586254821891620,23.56057,58.6287,"https://www.google.com/maps?q=23.56057,58.6287",Entire rental unit,entire_home,2,2,6,90,48,45785295,Vincent,,1,f,26,26,76,48,13428,13964,351,24,,f,,5/22/2023,1/16/2026,,Yes,No,No,Yes,Yes,Yes,No,Yes,Yes,Yes,Yes,Yes,Yes,No,No,No,No,,,https://a0.muscache.com/im/pictures/miso/Hosting-831845607011601445/original/64b920e9-a760-4aff-a4c4-715ebda45899.jpeg?aki_policy=large
942434351738573483,unique 2 story beachfront villa,https://airbnb.com/rooms/942434351738573483,23.605,58.356,"https://www.google.com/maps?q=23.605,58.356",Entire home,entire_home,2,3,5,100,11,269451420,Ed Z,,4,f,5,,116,73,29838,31028,351,23,0,f,,11/8/2023,1/16/2026,,Yes,No,No,No,Yes,Yes,Yes,Yes,Yes,Yes,Yes,Yes,No,No,No,Yes,Yes,,,https://a0.muscache.com/im/pictures/87c71d66-d4f4-4932-89cc-9185194b31b8.jpg?aki_policy=large
1151272471657880365,Rest-Inn two bedrooms apartment,https://airbnb.com/rooms/1151272471657880365,23.58114,58.39685,"https://www.google.com/maps?q=23.58114,58.39685",Entire rental unit,entire_home,2,2,5,80,14,560428480,Rabih,,1,-1,,,59,57,11636,12275,346,19,0,f,,7/2/2024,6/6/2025,,Yes,Yes,No,No,No,Yes,No,Yes,Yes,Yes,No,Yes,No,No,No,No,No,,,https://a0.muscache.com/im/pictures/hosting/Hosting-1151272471657880365/original/9c1c42dc-30e4-41af-88c2-f4dc3a30262b.jpeg?aki_policy=large
679474344344374624,Noor 2 bedroom apartment for beautiful holiday,https://airbnb.com/rooms/679474344344374624,23.61883,58.49964,"https://www.google.com/maps?q=23.61883,58.49964",Entire condo,entire_home,2,2,5,80,14,458231856,Sabah,,1,f,0,,83,54,15418,16359,344,18,0,f,,1/17/2023,10/10/2025,,Yes,No,No,No,No,Yes,No,Yes,Yes,Yes,No,Yes,No,No,No,No,No,,,https://a0.muscache.com/im/pictures/miso/Hosting-679474344344374624/original/422ac916-037f-4e7e-ac8a-9faec9f70bd6.jpeg?aki_policy=large
948370869071622182,The Cozy Marsa,https://airbnb.com/rooms/948370869071622182,23.63177,58.26531,"https://www.google.com/maps?q=23.63177,58.26531",Entire rental unit,entire_home,2,2,5,90,59,434715654,TheFlat,,1,f,47,130,132,60,27395,29671,337,15,,f,,8/22/2023,1/16/2026,,Yes,Yes,No,Yes,Yes,Yes,Yes,Yes,Yes,Yes,Yes,Yes,Yes,No,No,No,No,,,https://a0.muscache.com/im/pictures/9ea10ad1-f58b-41bf-94ec-94fa8abf08c1.jpg?aki_policy=large
805791451155706427,oxygen Flat 5 mins from Airport,https://airbnb.com/rooms/805791451155706427,23.57673,58.29912,"https://www.google.com/maps?q=23.57673,58.29912",Entire condo,entire_home,1,2,4,100,28,434715654,TheFlat,,1,f,39,260,76,68,17715,19244,336,9,,f,,2/23/2023,1/16/2026,,Yes,Yes,Yes,Yes,Yes,Yes,Yes,Yes,Yes,Yes,Yes,Yes,No,No,No,No,No,,,https://a0.muscache.com/im/pictures/miso/Hosting-805791451155706427/original/9378b485-0445-45a5-bbb9-3731cc5442a0.jpeg?aki_policy=large
1157266725378347609,Spacious flat in central Muscat,https://airbnb.com/rooms/1157266725378347609,23.62158,58.50063,"https://www.google.com/maps?q=23.62158,58.50063",Entire rental unit,entire_home,2,3,4,100,20,577648061,Faisal,,3,-1,,,66,62,13749,14936,336,30,0,f,,5/28/2024,1/9/2026,,Yes,No,No,No,Yes,Yes,No,Yes,Yes,Yes,No,Yes,No,No,No,No,No,,,https://a0.muscache.com/im/pictures/hosting/Hosting-1157266725378347609/original/c9fcd7da-84ea-4787-a796-b62cd67a03da.jpeg?aki_policy=large
22509570,Centeraly located new 1 bedroom flat in Muscat,https://airbnb.com/rooms/22509570,23.57366,58.41334,"https://www.google.com/maps?q=23.57366,58.41334",Entire rental unit,entire_home,1,2,2,100,136,66776340,Abdul,1,4,m,0,,81,77,20894,22765,335,4,0,f,,,1/16/2026,,Yes,Yes,Yes,No,Yes,Yes,Yes,Yes,Yes,Yes,No,Yes,Yes,No,No,No,Yes,,,https://a0.muscache.com/im/pictures/c09a6141-a25c-45bf-8e3d-260009d9874b.jpg?aki_policy=large
51471367,Bait Ahlam - Oman Heritage on Beach,https://airbnb.com/rooms/51471367,23.56393,58.6278,"https://www.google.com/maps?q=23.56393,58.6278",Entire cottage,entire_home,1,1,3,100,129,477244,Regula,,2,f,16,29,95,72,23138,25210,335,14,,f,,12/9/2022,1/16/2026,,Yes,No,No,Yes,Yes,Yes,No,Yes,Yes,Yes,No,No,Yes,No,No,Yes,No,,,https://a0.muscache.com/im/pictures/hosting/Hosting-U3RheVN1cHBseUxpc3Rpbmc6NTE0NzEzNjc%3D/original/827b8e9f-c7e3-4e5d-bed0-030f973ca7bb.jpeg?aki_policy=large
1019445072151526891,Lovely 2 Bed Apartment Near the Beach,https://airbnb.com/rooms/1019445072151526891,23.6,58.401,"https://www.google.com/maps?q=23.6,58.401",Entire condo,entire_home,2,2,6,100,79,496165069,Sukoon,,2,m,0,16,114,88,33607,36617,335,28,,f,,11/21/2023,1/16/2026,,Yes,No,No,Yes,Yes,Yes,No,Yes,Yes,Yes,Yes,Yes,Yes,Yes,No,Yes,Yes,,,https://a0.muscache.com/im/pictures/hosting/Hosting-1019445072151526891/original/261b9bb2-443a-4363-8b6e-d413d00dbe94.jpeg?aki_policy=large
1210626837553289179,"Bawshar Dunes Apartment, Building 433",https://airbnb.com/rooms/1210626837553289179,23.55706,58.40313,"https://www.google.com/maps?q=23.55706,58.40313",Entire serviced apartment,entire_home,1,2,2,100,51,200642509,Saif,,1,-1,,,73,61,14918,16254,335,31,0,f,,8/27/2024,1/16/2026,,Yes,No,No,No,Yes,Yes,No,Yes,Yes,Yes,No,Yes,No,No,No,No,Yes,,,https://a0.muscache.com/im/pictures/hosting/Hosting-1210626837553289179/original/5c32a0c6-b59f-40f4-b7d0-2f028e0e60d6.jpeg?aki_policy=large
1058348162372899931,Tranquil 2-Bed Sanctuary,https://airbnb.com/rooms/1058348162372899931,23.596,58.348,"https://www.google.com/maps?q=23.596,58.348",Entire rental unit,entire_home,2,3,6,100,49,72668100,Bader,,3,m,52,8,113,64,25267,27530,335,20,,f,,2/6/2024,1/16/2026,,Yes,No,No,Yes,Yes,Yes,Yes,Yes,Yes,Yes,No,Yes,No,No,No,No,No,,,https://a0.muscache.com/im/pictures/hosting/Hosting-1058348162372899931/original/de554a13-e6cc-4f54-b826-b0d16549fe13.jpeg?aki_policy=large
5503767,penthouse room with lovely terrace,https://airbnb.com/rooms/5503767,23.598,58.368,"https://www.google.com/maps?q=23.598,58.368",Private room in rental unit,private_room,1,1,2,100,43,28546058,Tina,1,2,f,0,0,76,46,11712,12761,335,34,0,f,,,1/16/2026,,Yes,No,No,No,Yes,No,No,No,Yes,Yes,No,No,Yes,No,No,No,Yes,,,https://a0.muscache.com/im/pictures/1e73bed6-2d69-40fe-bd6f-248e5cf9125f.jpg?aki_policy=large
944109757900026933,The Cozy Retreat apartment,https://airbnb.com/rooms/944109757900026933,23.624,58.503,"https://www.google.com/maps?q=23.624,58.503",Entire rental unit,entire_home,1,2,3,100,35,492461097,Mohammed,,1,s,13,,83,61,17169,18707,335,16,0,f,,8/22/2023,1/16/2026,,Yes,No,No,No,Yes,Yes,No,Yes,Yes,Yes,Yes,Yes,Yes,Yes,No,No,No,,,https://a0.muscache.com/im/pictures/miso/Hosting-944109757900026933/original/f875eefb-3121-4ef7-acaa-d157b24509ab.jpeg?aki_policy=large
1136914214197756229,Old Muscat - private room No 3,https://airbnb.com/rooms/1136914214197756229,23.61499,58.59004,"https://www.google.com/maps?q=23.61499,58.59004",Private room in home,private_room,1,1,2,100,18,187676663,Mazin,,3,f,0,0,26,43,3745,4080,335,29,0,f,,4/30/2024,1/16/2026,,Yes,No,No,No,No,Yes,No,Yes,Yes,Yes,Yes,No,No,No,No,No,Yes,,,https://a0.muscache.com/im/pictures/hosting/Hosting-1136914214197756229/original/1e02ee5a-c1c0-4254-a4d7-f3935032e8ca.png?aki_policy=large
38967959,Sunshine Villa close to the beach,https://airbnb.com/rooms/38967959,23.68351,58.15768,"https://www.google.com/maps?q=23.68351,58.15768",Entire home,entire_home,3,4,6,100,16,261953268,Said,1,2,s,50,0,166,36,21620,23556,335,32,,f,,,1/16/2026,,Yes,No,Yes,Yes,Yes,Yes,Yes,Yes,Yes,Yes,No,Yes,No,No,No,Yes,No,,,https://a0.muscache.com/im/pictures/5aab8808-73f5-416a-a07b-9e9007188d90.jpg?aki_policy=large
1078146909314840633,Qantab Hut,https://airbnb.com/rooms/1078146909314840633,23.56035,58.63057,"https://www.google.com/maps?q=23.56035,58.63057",Private room in hut,private_room,1,1,2,100,13,58139850,Harooon,,1,f,0,,58,88,17098,18629,335,17,0,f,,2/6/2024,1/16/2026,,Yes,No,No,No,No,No,No,No,Yes,Yes,No,No,Yes,No,No,No,No,,,https://a0.muscache.com/im/pictures/hosting/Hosting-1078146909314840633/original/b168d93c-4a1d-4256-906d-d2ac80d6e73c.jpeg?aki_policy=large
1114513275620776518,The luxury lounge,https://airbnb.com/rooms/1114513275620776518,23.584,58.41,"https://www.google.com/maps?q=23.584,58.41",Entire rental unit,entire_home,2,2,4,100,10,19262676,HaSsaan,,3,-1,,,100,37,12395,13505,335,21,,f,,11/19/2024,1/16/2026,,Yes,Yes,Yes,Yes,Yes,Yes,Yes,Yes,Yes,Yes,Yes,Yes,No,No,No,No,No,,,https://a0.muscache.com/im/pictures/hosting/Hosting-1114513275620776518/original/eda33122-ef61-4453-97a5-81a4294fe235.jpeg?aki_policy=large
660733774502363785,Luxury 2-bedrooms condo with pool,https://airbnb.com/rooms/660733774502363785,23.629,58.266,"https://www.google.com/maps?q=23.629,58.266",Entire condo,entire_home,2,3,4,90,8,466543139,Sheeth,,1,f,0,104,160,58,31088,33872,335,11,,f,,1/17/2023,1/16/2026,,Yes,No,No,Yes,No,Yes,Yes,Yes,Yes,Yes,No,Yes,No,Yes,No,No,No,,,https://a0.muscache.com/im/pictures/miso/Hosting-660733774502363785/original/bb3d29fd-097e-41d0-8dc0-080e8f72a44f.jpeg?aki_policy=large
924727770559554511,rooms for rent next to muscat airport the village,https://airbnb.com/rooms/924727770559554511,23.588,58.383,"https://www.google.com/maps?q=23.588,58.383",Entire guesthouse,entire_home,1,1,2,90,8,492462652,Mazen,,1,s,7,0,39,12,1750,1907,335,26,,f,,9/26/2023,1/16/2026,,Yes,No,No,Yes,Yes,Yes,No,Yes,Yes,Yes,No,Yes,No,No,No,No,No,,,https://a0.muscache.com/im/pictures/b2688eb4-0da9-4829-86a7-d27965c9714a.jpg?aki_policy=large
1169572869576555177,Rest-Inn one bedroom apartment,https://airbnb.com/rooms/1169572869576555177,23.58096,58.39527,"https://www.google.com/maps?q=23.58096,58.39527",Entire rental unit,entire_home,1,2,3,80,6,560428480,Rabih,,1,-1,,,42,48,6754,7359,335,20,0,f,,8/27/2024,1/16/2026,,Yes,No,No,No,No,Yes,No,Yes,Yes,Yes,Yes,Yes,No,No,No,No,No,,,https://a0.muscache.com/im/pictures/hosting/Hosting-1169572869576555177/original/76ae4406-b841-43e8-8613-21b5b569cb3e.jpeg?aki_policy=large
1116708724431524271,luxury one bedroom apartment,https://airbnb.com/rooms/1116708724431524271,23.623,58.249,"https://www.google.com/maps?q=23.623,58.249",Entire rental unit,entire_home,1,2,2,100,4,201851191,Fahad,,1,-1,,,93,18,5608,6110,335,39,0,f,,11/12/2024,1/16/2026,,Yes,Yes,No,No,No,No,Yes,Yes,Yes,Yes,No,Yes,No,No,No,No,No,,,https://a0.muscache.com/im/pictures/miso/Hosting-1116708724431524271/original/da847b4e-102a-46d5-9182-03866bd0f432.jpeg?aki_policy=large
49193391,Ryhan Historical House 5min Walk to Souq Mutrah,https://airbnb.com/rooms/49193391,23.62026,58.56745,"https://www.google.com/maps?q=23.62026,58.56745",Private room in home,private_room,1,1,3,0,1,391816755,Fort,4,1,f,0,,66,93,20562,22403,335,21,0,f,,4/16/2022,1/16/2026,,Yes,No,No,No,Yes,No,No,Yes,Yes,Yes,Yes,No,No,No,No,No,No,,,https://a0.muscache.com/im/pictures/6089599a-0b07-41ff-ab25-ea742f0702ac.jpg?aki_policy=large
1175450445953436534,Luxury hotel flat,https://airbnb.com/rooms/1175450445953436534,23.63306,58.27338,"https://www.google.com/maps?q=23.63306,58.27338",Entire rental unit,entire_home,1,1,4,0,0,524547026,Hossam Tarek Mohamed,,1,-1,,,131,27,11849,12910,335,33,0,f,,11/5/2024,11/25/2025,,Yes,Yes,No,No,No,Yes,Yes,Yes,Yes,No,No,Yes,No,No,No,No,Yes,,,https://a0.muscache.com/im/pictures/hosting/Hosting-1175450445953436534/original/9692fa1f-eebc-4374-a5c7-3db22ac1d602.jpeg?aki_policy=large
1067433858963311548,A cozy one bed apartment,https://airbnb.com/rooms/1067433858963311548,23.591,58.439,"https://www.google.com/maps?q=23.591,58.439",Entire rental unit,entire_home,1,2,3,0,0,555567599,Hassan,,1,-1,,,64,16,3430,3737,335,37,0,f,,7/16/2024,1/16/2026,,Yes,No,No,No,No,Yes,No,Yes,Yes,Yes,No,Yes,No,No,No,No,No,,,https://a0.muscache.com/im/pictures/hosting/Hosting-1067433858963311548/original/59bafcec-f463-420c-8b51-32ce8ed80ab4.jpeg?aki_policy=large
28471170,Bait Rashid - Beachside,https://airbnb.com/rooms/28471170,23.563,58.629,"https://www.google.com/maps?q=23.563,58.629",Entire bungalow,entire_home,2,2,5,100,209,477244,Regula,1,2,s,32,29,106,74,26583,29050,334,12,,f,,,1/16/2026,,Yes,No,No,Yes,Yes,Yes,No,Yes,Yes,Yes,No,No,Yes,No,No,Yes,No,,,https://a0.muscache.com/im/pictures/miso/Hosting-28471170/original/51f39d95-f5ab-49aa-9300-43280f1b5b42.jpeg?aki_policy=large
32753428,The Coral Reef Apartment with Sea View ⭐,https://airbnb.com/rooms/32753428,23.59559,58.60214,"https://www.google.com/maps?q=23.59559,58.60214",Entire rental unit,entire_home,3,2,7,100,121,224418538,Mohamad,1,1,f,0,20,90,60,18036,19710,334,22,0,f,,,9/5/2025,,Yes,No,No,No,Yes,Yes,No,Yes,Yes,Yes,No,Yes,No,No,No,No,Yes,,,https://a0.muscache.com/im/pictures/a75b35fa-e26e-4b2a-b8d0-35ab54fb4deb.jpg?aki_policy=large
36118401,Guests House Muscat,https://airbnb.com/rooms/36118401,23.55948,58.62618,"https://www.google.com/maps?q=23.55948,58.62618",Entire guesthouse,entire_home,1,1,2,100,115,205820235,Ahmed,,1,f,0,,31,44,4556,4979,334,24,0,f,,,1/16/2026,,Yes,No,No,No,Yes,Yes,No,Yes,Yes,Yes,Yes,Yes,No,No,No,No,No,,,https://a0.muscache.com/im/pictures/2a9deef0-afa3-4a5b-b9c5-b0ba66004c45.jpg?aki_policy=large
28217924,Comfortable/Clean and Affordable Studio OGP1796,https://airbnb.com/rooms/28217924,23.59259,58.44177,"https://www.google.com/maps?q=23.59259,58.44177",Private room in guest suite,private_room,Studio,1,4,90,114,45785295,Vincent,35,1,f,25,15,29,55,5777,6313,334,18,0,f,,,1/9/2026,,Yes,No,No,No,Yes,Yes,No,Yes,Yes,Yes,No,Yes,Yes,No,No,No,No,,,https://a0.muscache.com/im/pictures/5ced34b9-c026-46c6-ad3b-b8887a73e6d5.jpg?aki_policy=large
613084332531156533,One bedroom apartment near the beach,https://airbnb.com/rooms/613084332531156533,23.601,58.4,"https://www.google.com/maps?q=23.601,58.4",Entire rental unit,entire_home,1,2,3,100,101,428211113,Talal,,2,f,0,,65,81,17585,19217,334,15,0,f,,1/17/2023,1/16/2026,,Yes,No,Yes,No,No,Yes,Yes,Yes,Yes,Yes,Yes,Yes,No,Yes,No,No,No,,,https://a0.muscache.com/im/pictures/miso/Hosting-613084332531156533/original/f68eb7fa-ef0a-4957-b48f-faf700b3e77d.jpeg?aki_policy=large
731064495872311045,High Residency. Fully Furnished & Spacious Apt,https://airbnb.com/rooms/731064495872311045,23.613,58.468,"https://www.google.com/maps?q=23.613,58.468",Entire serviced apartment,entire_home,2,3,8,100,84,482355413,Nabil,,1,m,26,13,96,95,31059,33942,334,23,,f,,1/17/2023,1/16/2026,,Yes,No,No,Yes,Yes,Yes,No,Yes,Yes,Yes,Yes,Yes,No,No,No,Yes,No,,,https://a0.muscache.com/im/pictures/miso/Hosting-731064495872311045/original/fa2e4d2a-c7fc-4bb1-afa0-360437efdfeb.jpeg?aki_policy=large
1083911772404013193,"Cozy Flat in Bawshar, Muscat | Self check-in",https://airbnb.com/rooms/1083911772404013193,23.568,58.414,"https://www.google.com/maps?q=23.568,58.414",Entire rental unit,entire_home,1,1,2,100,79,560266714,Alawi,,1,f,0,,61,59,12021,13137,334,34,0,f,,2/13/2024,1/16/2026,,Yes,No,Yes,No,No,No,Yes,Yes,Yes,Yes,Yes,Yes,No,No,No,No,Yes,,,https://a0.muscache.com/im/pictures/hosting/Hosting-1083911772404013193/original/7af8a1ed-a941-4b2a-aa0f-c6d5def658de.jpeg?aki_policy=large
37374580,A private double bedroom in Muscat,https://airbnb.com/rooms/37374580,23.56028,58.62564,"https://www.google.com/maps?q=23.56028,58.62564",Private room in guesthouse,private_room,1,1,2,100,76,171534241,Abdullah,,1,f,0,,31,43,4452,4865,334,17,0,f,,,1/16/2026,,Yes,No,No,No,Yes,No,No,Yes,Yes,Yes,Yes,Yes,Yes,No,No,No,No,,,https://a0.muscache.com/im/pictures/c170a78b-3629-409b-b5c8-7e1f4a60e596.jpg?aki_policy=large
811303395771071640,Luxury Condo in alMouj 1 bedroom,https://airbnb.com/rooms/811303395771071640,23.6306,58.27276,"https://www.google.com/maps?q=23.6306,58.27276",Entire condo,entire_home,1,1,4,90,71,417031083,Abdullah,,1,s,0,,113,49,18494,20211,334,23,0,f,,2/23/2023,1/16/2026,,Yes,No,Yes,No,No,Yes,Yes,Yes,Yes,Yes,Yes,Yes,Yes,No,No,No,No,,,https://a0.muscache.com/im/pictures/miso/Hosting-811303395771071640/original/fd9a7990-2499-47c9-b2ff-37ea036dc35d.jpeg?aki_policy=large
1284720091861944793,"Muscat Dunes Apartment, Building 423",https://airbnb.com/rooms/1284720091861944793,23.557137610026313,58.404198673746166,"https://www.google.com/maps?q=23.557137610026313,58.404198673746166",Entire serviced apartment,entire_home,1,2,2,100,56,200642509,Saif,,1,-1,,,71,69,16363,17882,334,32,0,f,,11/19/2024,1/16/2026,,Yes,No,No,No,Yes,Yes,No,Yes,Yes,Yes,Yes,Yes,No,No,No,No,Yes,,,https://a0.muscache.com/im/pictures/hosting/Hosting-1284720091861944793/original/b121c80b-e590-4f89-8c31-1aaa2ac6d561.jpeg?aki_policy=large
870346552861438544,2-Bedroom Flat near Qurum shops and restaurants,https://airbnb.com/rooms/870346552861438544,23.61902,58.49642,"https://www.google.com/maps?q=23.61902,58.49642",Entire condo,entire_home,2,2,4,90,46,194112201,Zahir,,1,s,0,,80,56,14963,16352,334,15,0,f,,5/22/2023,1/16/2026,,Yes,No,No,No,Yes,Yes,No,Yes,Yes,Yes,Yes,Yes,Yes,No,No,No,No,,,https://a0.muscache.com/im/pictures/5d3fedb1-b0ff-4993-ab92-cddf20ebc369.jpg?aki_policy=large
1145734691475319273,"#➊ 10min By Car To Beach, Parking Available",https://airbnb.com/rooms/1145734691475319273,23.599,58.502,"https://www.google.com/maps?q=23.599,58.502",Entire rental unit,entire_home,1,2,4,90,37,127073037,Haitham,,1,f,0,,76,34,8631,9432,334,22,,f,,5/7/2024,9/5/2025,,Yes,No,No,Yes,Yes,Yes,No,Yes,Yes,Yes,No,Yes,No,No,No,No,No,,,https://a0.muscache.com/im/pictures/miso/Hosting-1145734691475319273/original/79bbef18-1b02-4206-be3f-9dc06123c50e.jpeg?aki_policy=large
1081850941606584674,شقة مفروشه بنظام فندقي,https://airbnb.com/rooms/1081850941606584674,23.582,58.396,"https://www.google.com/maps?q=23.582,58.396",Entire rental unit,entire_home,2,2,5,90,36,559800561,Omaima,,1,f,0,,59,47,9262,10122,334,40,0,f,,2/13/2024,1/16/2026,,Yes,No,No,No,No,Yes,No,Yes,Yes,Yes,No,Yes,No,No,No,No,No,,,https://a0.muscache.com/im/pictures/hosting/Hosting-1081850941606584674/original/80fbaa94-72af-43f0-869a-42802606aa26.jpeg?aki_policy=large
43837572,The Blue Gate 3,https://airbnb.com/rooms/43837572,23.56638,58.61642,"https://www.google.com/maps?q=23.56638,58.61642",Entire villa,entire_home,1,1,3,90,31,349307284,Aleksi,3,1,m,10,0,123,25,10660,11649,334,39,0,f,,9/21/2021,4/21/2025,,Yes,No,No,No,No,Yes,No,Yes,Yes,Yes,No,Yes,Yes,No,No,Yes,Yes,,,https://a0.muscache.com/im/pictures/840929a2-edc8-4410-848e-d2a00333722e.jpg?aki_policy=large
32391946,Old Muscat - Sidab 2,https://airbnb.com/rooms/32391946,23.60504,58.59815,"https://www.google.com/maps?q=23.60504,58.59815",Entire rental unit,entire_home,1,1,1,100,30,187676663,Mazin,,2,f,0,10,19,62,3935,4300,334,9,0,f,,7/31/2023,1/16/2026,,Yes,No,No,No,No,Yes,No,No,Yes,Yes,Yes,No,No,No,No,No,No,,,https://a0.muscache.com/im/pictures/miso/Hosting-32391946/original/cd2c623e-8d86-48e2-b0e4-4de3e6eba2f7.jpeg?aki_policy=large
875388598197134675,OGP1793 Comfortable Clean and Affordable Studio,https://airbnb.com/rooms/875388598197134675,23.59216,58.44229,"https://www.google.com/maps?q=23.59216,58.44229",Private room in home,private_room,1,1,4,90,25,45785295,Vincent,,1,-1,,13,32,68,7268,7943,334,19,,f,,5/22/2023,1/16/2026,,Yes,No,No,Yes,Yes,Yes,No,Yes,Yes,Yes,Yes,Yes,Yes,No,No,No,No,,,https://a0.muscache.com/im/pictures/721079bb-db14-4c6e-a000-e635b4c0c258.jpg?aki_policy=large
1092748876623272764,Qurum Serenity: 2-BR in Muscat,https://airbnb.com/rooms/1092748876623272764,23.622,58.5,"https://www.google.com/maps?q=23.622,58.5",Entire rental unit,entire_home,2,3,5,90,16,458231856,Sabah,,1,f,0,,82,47,12872,14067,334,29,0,f,,2/27/2024,1/16/2026,,Yes,No,Yes,No,Yes,Yes,Yes,Yes,Yes,Yes,No,Yes,No,No,No,No,No,,,https://a0.muscache.com/im/pictures/miso/Hosting-1092748876623272764/original/7ba7e836-5015-4167-a5fc-66dfe7ca43b3.jpeg?aki_policy=large
1074496231903390106,Pinnacle Row – Cityscape Haven,https://airbnb.com/rooms/1074496231903390106,23.601,58.4,"https://www.google.com/maps?q=23.601,58.4",Entire rental unit,entire_home,2,2,5,90,10,512286151,Taha,,1,f,0,,87,86,24990,27309,334,35,,f,,2/6/2024,1/30/2025,,Yes,No,Yes,Yes,Yes,Yes,Yes,Yes,Yes,Yes,Yes,Yes,No,No,No,Yes,Yes,,,https://a0.muscache.com/im/pictures/miso/Hosting-1074496231903390106/original/d69ca251-b52b-4981-a955-2515456be3e4.jpeg?aki_policy=large
1058607493544983912,Mazoon Cozy Flat,https://airbnb.com/rooms/1058607493544983912,23.61426,58.20226,"https://www.google.com/maps?q=23.61426,58.20226",Entire rental unit,entire_home,2,2,6,90,9,434715654,TheFlat,,1,f,21,127,76,49,12606,13776,334,8,,f,,1/9/2024,1/16/2026,,Yes,No,No,Yes,Yes,Yes,No,Yes,Yes,Yes,Yes,Yes,No,No,No,No,No,,,https://a0.muscache.com/im/pictures/hosting/Hosting-1058607493544983912/original/76b92267-797d-492b-8204-1d8a6fd2c1fb.jpeg?aki_policy=large
1021659335645071701,Arabian Night Nook - Flower Meadow,https://airbnb.com/rooms/1021659335645071701,23.622,58.487,"https://www.google.com/maps?q=23.622,58.487",Private room in villa,private_room,1,1,2,90,4,493609593,Majid,,1,f,0,,51,51,8687,9493,334,25,0,f,,12/13/2023,1/16/2026,,Yes,No,No,No,Yes,No,No,Yes,Yes,Yes,No,Yes,No,No,No,Yes,No,,,https://a0.muscache.com/im/pictures/hosting/Hosting-1021659335645071701/original/7aa04c4a-a09f-4bf8-8278-9fab753d04b1.jpeg?aki_policy=large
1174090657417004683,Unique 1 bedroom apartment,https://airbnb.com/rooms/1174090657417004683,23.624,58.202,"https://www.google.com/maps?q=23.624,58.202",Entire rental unit,entire_home,1,2,4,80,4,582156904,Ghaith,,1,-1,,,53,35,6196,6771,334,33,0,f,,6/18/2024,9/5/2025,,Yes,No,No,No,No,No,No,Yes,Yes,Yes,No,Yes,No,No,No,No,No,,,https://a0.muscache.com/im/pictures/hosting/Hosting-1174090657417004683/original/20c00378-4bf6-4868-a2f9-2f02c6d4f1ce.jpeg?aki_policy=large
1041183831605011915,Arabian Night Nook - Red Jewel,https://airbnb.com/rooms/1041183831605011915,23.622,58.487,"https://www.google.com/maps?q=23.622,58.487",Private room in villa,private_room,1,1,2,100,3,493609593,Majid,,1,-1,,,56,58,10848,11855,334,21,0,f,,7/16/2024,1/16/2026,,Yes,No,No,No,Yes,No,No,No,Yes,Yes,No,Yes,No,No,No,No,No,,,https://a0.muscache.com/im/pictures/hosting/Hosting-U3RheVN1cHBseUxpc3Rpbmc6MTA0MTE4MzgzMTYwNTAxMTkxNQ%3D%3D/original/f3a73bb6-7d3e-4efa-9c9c-985c28726d15.jpeg?aki_policy=large
1193429074092223969,Luxurious Room For rent,https://airbnb.com/rooms/1193429074092223969,23.593,58.404,"https://www.google.com/maps?q=23.593,58.404",Private room in home,private_room,1,1,2,0,1,569708774,Majid,,1,-1,,,31,28,2899,3168,334,37,,f,,7/9/2024,1/16/2026,,Yes,No,No,Yes,Yes,Yes,No,Yes,No,Yes,Yes,Yes,Yes,No,No,No,No,,,https://a0.muscache.com/im/pictures/hosting/Hosting-1193429074092223969/original/e7e0996a-4935-4c59-82bd-438b77916420.jpeg?aki_policy=large
1074766882307480635,Master room +bathroom and share kitchen,https://airbnb.com/rooms/1074766882307480635,23.60295,58.44343,"https://www.google.com/maps?q=23.60295,58.44343",Private room in home,private_room,1,0,2,0,0,555044470,Matin,,1,-1,,,40,16,2138,2336,334,36,0,f,,11/19/2024,1/16/2026,,Yes,No,No,No,No,No,No,Yes,Yes,Yes,No,Yes,Yes,No,No,No,No,,,https://a0.muscache.com/im/pictures/hosting/Hosting-1074766882307480635/original/9bb41c4f-cf02-4964-94b8-db989947b27f.jpeg?aki_policy=large
1111244274214011066,Majestic,https://airbnb.com/rooms/1111244274214011066,23.58696,58.52286,"https://www.google.com/maps?q=23.58696,58.52286",Entire rental unit,entire_home,2,3,7,0,0,566818494,Tariq,,1,-1,,,65,33,7164,7829,334,37,,f,,6/18/2024,1/16/2026,,Yes,Yes,No,Yes,Yes,Yes,No,Yes,Yes,Yes,No,Yes,Yes,No,No,No,No,,,https://a0.muscache.com/im/pictures/hosting/Hosting-1111244274214011066/original/bcbce5a2-48bb-4855-b8ae-7581d4be02b2.jpeg?aki_policy=large
49238941,Luban Omani Traditional House Near Souq Mutrah,https://airbnb.com/rooms/49238941,23.619,58.568,"https://www.google.com/maps?q=23.619,58.568",Private room in home,private_room,1,1,3,0,0,391816755,Fort,4,1,f,0,,66,90,19840,21681,334,18,0,f,,1/6/2022,1/16/2026,,Yes,No,No,No,Yes,No,No,Yes,Yes,Yes,Yes,No,No,No,No,No,No,,,https://a0.muscache.com/im/pictures/6089599a-0b07-41ff-ab25-ea742f0702ac.jpg?aki_policy=large
1079222312221093305,Muttrah SeaViw Room,https://airbnb.com/rooms/1079222312221093305,23.62165,58.56555,"https://www.google.com/maps?q=23.62165,58.56555",Private room in rental unit,private_room,1,1,2,0,0,65311746,Ahmed,,1,f,0,,79,22,5805,6344,334,40,,f,,2/6/2024,1/16/2026,,No,No,No,Yes,No,No,No,No,Yes,Yes,No,Yes,No,No,No,No,No,,,https://a0.muscache.com/im/pictures/hosting/Hosting-1079222312221093305/original/6f7f320c-8ac5-4ae8-ad25-92d2f8bdfa59.jpeg?aki_policy=large
36435557,Private Apt + King Bed + Wifi + BeIN TV + Parking_,https://airbnb.com/rooms/36435557,23.59426,58.39206,"https://www.google.com/maps?q=23.59426,58.39206",Entire rental unit,entire_home,2,2,5,100,109,6232201,Loay,3,2,m,55,10,60,93,19076,20909,333,9,0,f,,,1/16/2026,,Yes,No,No,No,Yes,Yes,No,Yes,Yes,Yes,Yes,Yes,No,No,No,No,No,,,https://a0.muscache.com/im/pictures/fcb93603-90d5-44f1-8427-2630c52c137c.jpg?aki_policy=large
1205710358713902709,luxury_silent &nearby mall & sea,https://airbnb.com/rooms/1205710358713902709,23.575,58.413,"https://www.google.com/maps?q=23.575,58.413",Private room in rental unit,private_room,1,1,3,100,54,590353080,Nazanin,,2,-1,,,45,61,9141,10019,333,40,0,f,,7/30/2024,1/16/2026,,Yes,Yes,No,No,No,Yes,Yes,Yes,Yes,Yes,No,Yes,Yes,No,No,No,Yes,,,https://a0.muscache.com/im/pictures/hosting/Hosting-1205710358713902709/original/1780ed5a-3513-4b11-8f70-213e59523bf9.jpeg?aki_policy=large
931416213320170490,Home away from home,https://airbnb.com/rooms/931416213320170490,23.62941416658447,58.266627845215744,"https://www.google.com/maps?q=23.62941416658447,58.266627845215744",Entire rental unit,entire_home,2,2,4,100,36,162531610,Hafidh,,3,m,52,,119,85,33839,37091,333,3,0,f,,7/31/2023,1/30/2025,,Yes,Yes,Yes,No,Yes,Yes,Yes,Yes,Yes,Yes,No,Yes,No,No,No,No,No,,,https://a0.muscache.com/im/pictures/7a126c4a-7556-4e16-a55d-d4aeabdadf92.jpg?aki_policy=large
1192630166795987272,Private Apt+ King Bed +Parking$,https://airbnb.com/rooms/1192630166795987272,23.59612,58.39278,"https://www.google.com/maps?q=23.59612,58.39278",Entire rental unit,entire_home,1,1,3,100,20,6232201,Loay,,2,-1,,13,56,95,17716,19418,333,8,0,f,,7/23/2024,1/16/2026,,Yes,No,No,No,Yes,Yes,No,Yes,Yes,Yes,Yes,Yes,Yes,No,No,No,No,,,https://a0.muscache.com/im/pictures/miso/Hosting-1192630166795987272/original/539e43e0-3291-4b00-8059-87300a872a8d.jpeg?aki_policy=large
1137732887341553363,Luxury Apartment near the beach,https://airbnb.com/rooms/1137732887341553363,23.601,58.401,"https://www.google.com/maps?q=23.601,58.401",Entire rental unit,entire_home,1,2,3,100,92,380666626,Mahir,,2,f,0,,74,92,22603,24850,332,22,0,f,,4/30/2024,1/16/2026,,Yes,No,Yes,No,Yes,Yes,Yes,Yes,Yes,Yes,Yes,Yes,No,Yes,No,No,No,,,https://a0.muscache.com/im/pictures/hosting/Hosting-1137732887341553363/original/60e892dc-88b1-4aeb-8eca-5cd625472b68.jpeg?aki_policy=large
32412583,A’idah opulence villa,https://airbnb.com/rooms/32412583,23.6804,58.15134,"https://www.google.com/maps?q=23.6804,58.15134",Entire villa,entire_home,4,6,8,100,54,238970290,A’idah,1,5,s,15,,182,54,33064,36350,332,29,,f,,,1/16/2026,,Yes,No,No,Yes,Yes,Yes,Yes,Yes,Yes,Yes,Yes,Yes,Yes,No,No,No,Yes,,,https://a0.muscache.com/im/pictures/5a94de45-2136-44f7-bfc6-aeeecd9e3165.jpg?aki_policy=large
1186029628681690903,Blissful place with homely feel,https://airbnb.com/rooms/1186029628681690903,23.56645,58.38767,"https://www.google.com/maps?q=23.56645,58.38767",Entire home,entire_home,6,9,12,100,17,584881382,Ramzi,,2,-1,,,465,35,54033,59404,332,16,,f,,8/27/2024,1/16/2026,,Yes,No,Yes,Yes,Yes,Yes,Yes,Yes,Yes,Yes,Yes,Yes,Yes,No,No,No,No,,,https://a0.muscache.com/im/pictures/hosting/Hosting-U3RheVN1cHBseUxpc3Rpbmc6MTE4NjAyOTYyODY4MTY5MDkwMw%3D%3D/original/664fed63-afb8-491e-a8bb-b51bb7305537.jpeg?aki_policy=large
1043828289408641043,quiet room,https://airbnb.com/rooms/1043828289408641043,23.572,58.357,"https://www.google.com/maps?q=23.572,58.357",Private room in rental unit,private_room,1,1,3,0,0,550359637,Amirhesam,,1,f,0,,19,19,1199,1318,332,32,0,f,,1/9/2024,1/16/2026,,No,No,No,No,No,Yes,No,Yes,Yes,Yes,No,Yes,No,No,No,No,No,,,https://a0.muscache.com/im/pictures/hosting/Hosting-1043828289408641043/original/6d73aa6e-11d6-4c60-8cc4-939bc0ceb263.jpeg?aki_policy=large
1122948996298750139,Elegant 3-Bed room Penthouse,https://airbnb.com/rooms/1122948996298750139,23.623,58.504,"https://www.google.com/maps?q=23.623,58.504",Entire rental unit,entire_home,3,4,7,100,4,165171323,Saud,,2,f,39,,205,52,36065,39770,331,20,0,f,,4/2/2024,1/16/2026,,Yes,No,No,No,No,Yes,Yes,Yes,Yes,Yes,Yes,Yes,No,No,No,No,Yes,,,https://a0.muscache.com/im/pictures/hosting/Hosting-U3RheVN1cHBseUxpc3Rpbmc6MTEyMjk0ODk5NjI5ODc1MDEzOQ%3D%3D/original/5c6601e1-4b1b-494f-96e8-63238c88622c.jpeg?aki_policy=large
1260745767389827769,"Charming One-Bedroom Apartment in Muscat, Oman",https://airbnb.com/rooms/1260745767389827769,23.574,58.413,"https://www.google.com/maps?q=23.574,58.413",Entire rental unit,entire_home,1,2,3,100,55,655584195,Yousuf,,2,-1,,,85,82,23001,25440,330,24,0,f,,10/15/2024,1/16/2026,,Yes,Yes,Yes,No,Yes,Yes,Yes,Yes,Yes,Yes,No,Yes,Yes,No,No,No,No,,,https://a0.muscache.com/im/pictures/miso/Hosting-1260745767389827769/original/cef23fe3-be9e-488e-9959-9750d732ea94.jpeg?aki_policy=large
1150348137054714390,Rimal Apartment,https://airbnb.com/rooms/1150348137054714390,23.576,58.417,"https://www.google.com/maps?q=23.576,58.417",Entire rental unit,entire_home,2,3,3,90,20,567228378,Mohammed,,1,-1,,,81,75,20048,22174,330,17,,f,,5/28/2024,6/6/2025,,Yes,Yes,No,Yes,Yes,Yes,No,Yes,Yes,Yes,No,Yes,No,No,No,No,Yes,,,https://a0.muscache.com/im/pictures/miso/Hosting-1150348137054714390/original/5a24698e-e582-45eb-94cb-dca4a01fdd89.jpeg?aki_policy=large
24743428,Comfortable/Clean and Affordable Studio OGP1794,https://airbnb.com/rooms/24743428,23.59402,58.44246,"https://www.google.com/maps?q=23.59402,58.44246",Private room in villa,private_room,Studio,1,2,90,88,45785295,Vincent,35,1,f,25,,23,50,4158,4613,329,15,0,f,,,1/16/2026,,Yes,No,No,No,Yes,Yes,No,Yes,Yes,Yes,Yes,Yes,Yes,No,No,No,No,,,https://a0.muscache.com/im/pictures/4bc04f76-b1c6-483f-a22b-20b5dffe6b90.jpg?aki_policy=large
11499264,Karibu private studio / villa in Muscat,https://airbnb.com/rooms/11499264,23.59946,58.36269,"https://www.google.com/maps?q=23.59946,58.36269",Entire home,entire_home,1,1,3,90,73,60566690,Mida,1,1,f,0,150,43,98,13864,15381,329,32,,f,,,1/16/2026,,Yes,No,Yes,Yes,No,No,No,Yes,Yes,Yes,Yes,Yes,Yes,No,No,No,No,,,https://a0.muscache.com/im/pictures/5f543d54-6d55-42df-8391-94e10fc737f6.jpg?aki_policy=large
13306778,A view with a room with en suite bathroom,https://airbnb.com/rooms/13306778,23.57343,58.4126,"https://www.google.com/maps?q=23.57343,58.4126",Private room in rental unit,private_room,1,1,2,100,31,75177384,Darryl,1,1,m,10,,46,36,5838,6477,329,39,0,f,,,1/16/2026,,Yes,No,No,No,No,Yes,No,Yes,Yes,Yes,No,Yes,No,No,No,No,Yes,,,https://a0.muscache.com/im/pictures/27292bd1-6fec-40da-a05f-c3ee952b2a3b.jpg?aki_policy=large
899084661362747150,nice hostel,https://airbnb.com/rooms/899084661362747150,23.60341,58.36964,"https://www.google.com/maps?q=23.60341,58.36964",Private room in home,private_room,4,4,3,0,1,516478113,Bahar,,1,f,0,13,23,13,984,1092,329,28,0,f,,7/31/2023,1/16/2026,,Yes,No,No,No,No,No,No,Yes,Yes,Yes,No,No,Yes,No,No,No,No,,,https://a0.muscache.com/im/pictures/miso/Hosting-899084661362747150/original/7a744dbd-fae6-4ed7-8e87-fa5c8ca55666.jpeg?aki_policy=large
1026415620733781840,A room of good memories,https://airbnb.com/rooms/1026415620733781840,23.596,58.368,"https://www.google.com/maps?q=23.596,58.368",Private room in home,private_room,1,2,4,0,1,546822472,Farhad,,1,-1,,,30,15,1480,1642,329,32,0,f,,2/4/2025,1/16/2026,,No,No,No,No,No,Yes,No,Yes,Yes,Yes,No,Yes,No,No,No,No,No,,,https://a0.muscache.com/im/pictures/miso/Hosting-1026415620733781840/original/085850ae-5cc9-4bb2-89b4-e133ad4566f8.jpeg?aki_policy=large
629661774641860318,Lovely 1 Bedroom at the Heart of Muscat,https://airbnb.com/rooms/629661774641860318,23.58994,58.35804,"https://www.google.com/maps?q=23.58994,58.35804",Private room in rental unit,private_room,1,1,2,0,0,149022707,Froi,,1,f,0,,84,38,10502,11651,329,39,0,f,,1/17/2023,1/16/2026,,Yes,No,No,No,No,Yes,No,Yes,Yes,Yes,No,Yes,No,No,No,No,No,,,https://a0.muscache.com/im/pictures/605a5776-fe17-47e5-a908-dd0c3a9aa479.jpg?aki_policy=large
739884526231012542,2 bedrooms apartment near Qurum beach,https://airbnb.com/rooms/739884526231012542,23.622,58.502,"https://www.google.com/maps?q=23.622,58.502",Entire condo,entire_home,2,3,4,100,86,202748922,Mohammed,,1,s,28,0,48,82,13274,14771,328,13,,f,,1/17/2023,6/6/2025,,Yes,No,No,Yes,Yes,Yes,No,Yes,Yes,Yes,Yes,Yes,No,No,No,No,No,,,https://a0.muscache.com/im/pictures/572ca2cc-95c6-4b70-bcae-7865acc018f1.jpg?aki_policy=large
910282620472499623,the spirit,https://airbnb.com/rooms/910282620472499623,23.622,58.249,"https://www.google.com/maps?q=23.622,58.249",Entire rental unit,entire_home,1,2,2,0,1,481793205,Hamood,,1,f,0,,80,12,3149,3504,328,26,0,f,,7/31/2023,10/10/2025,,Yes,No,Yes,No,No,Yes,Yes,Yes,Yes,Yes,No,Yes,No,No,No,No,No,,,https://a0.muscache.com/im/pictures/e75eb08b-8c9c-4a8a-9e94-3a72d8abf6c5.jpg?aki_policy=large
1136906769660147644,Old Muscat-private Room No 2,https://airbnb.com/rooms/1136906769660147644,23.615,58.589,"https://www.google.com/maps?q=23.615,58.589",Private room in rental unit,private_room,1,1,2,100,10,187676663,Mazin,,3,-1,,,26,33,2806,3132,327,23,0,f,,6/11/2024,1/16/2026,,Yes,No,No,No,No,Yes,No,Yes,Yes,Yes,Yes,No,No,No,No,No,Yes,,,https://a0.muscache.com/im/pictures/hosting/Hosting-1136906769660147644/original/61514d5e-99c0-4706-a9a5-f1380b500621.png?aki_policy=large
30032763,Spacious Aprt in the City-Suitable for Families,https://airbnb.com/rooms/30032763,23.61676,58.49917,"https://www.google.com/maps?q=23.61676,58.49917",Entire rental unit,entire_home,2,2,7,100,90,33044195,Muntadhar,1,2,f,40,10,94,58,18334,20527,326,14,0,f,,,1/16/2026,,Yes,No,No,No,Yes,Yes,No,Yes,Yes,Yes,No,Yes,No,No,No,No,No,,,https://a0.muscache.com/im/pictures/b951697d-2018-4cbc-89ef-d12c511bb1fd.jpg?aki_policy=large
39986470,Private room in a Penthouse with huge balcony,https://airbnb.com/rooms/39986470,23.58477,58.36894,"https://www.google.com/maps?q=23.58477,58.36894",Private room in rental unit,private_room,1,1,1,0,0,7329148,Saurabh,1,5,f,0,0,55,98,17464,19674,324,30,,f,,,1/16/2026,,Yes,No,No,Yes,Yes,Yes,No,Yes,Yes,Yes,No,Yes,No,No,No,No,No,,,https://a0.muscache.com/im/pictures/cb03dbaf-5165-46f7-ba46-9a92f0ad6390.jpg?aki_policy=large
839665971467669779,Marina View Lovely cozy 1BR Apt,https://airbnb.com/rooms/839665971467669779,23.63051,58.26363,"https://www.google.com/maps?q=23.63051,58.26363",Entire rental unit,entire_home,1,2,4,90,71,434715654,TheFlat,,1,f,39,0,114,64,23995,27115,323,11,,f,,5/22/2023,1/16/2026,,Yes,Yes,No,Yes,Yes,Yes,Yes,Yes,Yes,Yes,Yes,Yes,No,No,No,No,Yes,,,https://a0.muscache.com/im/pictures/miso/Hosting-839665971467669779/original/50daff35-f09f-452c-8b6d-1315e24d5688.jpeg?aki_policy=large
1284580495897680179,"#➊ Near Airport, Pool, Gym",https://airbnb.com/rooms/1284580495897680179,23.602,58.243,"https://www.google.com/maps?q=23.602,58.243",Entire rental unit,entire_home,1,1,4,90,33,127073037,Haitham,,1,-1,,,87,50,14007,15878,322,25,,f,,11/12/2024,9/5/2025,,Yes,No,Yes,Yes,Yes,No,Yes,Yes,Yes,Yes,No,Yes,No,No,No,No,No,,,https://a0.muscache.com/im/pictures/hosting/Hosting-1284580495897680179/original/0c1b20bc-376a-4816-97f0-93ee4c799126.jpeg?aki_policy=large
1090591213708293665,Rest-Inn Spacious two bedroom apartments,https://airbnb.com/rooms/1090591213708293665,23.582,58.396,"https://www.google.com/maps?q=23.582,58.396",Entire rental unit,entire_home,2,2,5,70,10,560428480,Rabih,,1,f,0,,55,55,9710,11041,321,17,0,f,,2/27/2024,5/9/2025,,Yes,No,No,No,No,Yes,No,Yes,Yes,Yes,No,Yes,No,No,No,No,No,,,https://a0.muscache.com/im/pictures/hosting/Hosting-1090591213708293665/original/cae559fd-8ccb-44f5-9ce1-aa09c6638211.jpeg?aki_policy=large
1057039100812762980,"Al Dhalal Farm Villa, Seaside Haven with Pools",https://airbnb.com/rooms/1057039100812762980,23.676,58.196,"https://www.google.com/maps?q=23.676,58.196",Farm stay,entire_home,3,5,10,90,8,424636830,Mohsin,,1,m,0,,195,44,27456,31317,320,21,,f,,1/16/2024,1/16/2026,,Yes,No,No,Yes,No,No,Yes,Yes,Yes,Yes,No,Yes,Yes,No,No,No,No,,,https://a0.muscache.com/im/pictures/miso/Hosting-1057039100812762980/original/1bd89e04-9e0e-4655-b020-a7ae7f5d649d.jpeg?aki_policy=large
1110694973842480212,clean house,https://airbnb.com/rooms/1110694973842480212,23.6165,58.25242,"https://www.google.com/maps?q=23.6165,58.25242",Private room in rental unit,private_room,17,1,4,70,3,566671234,Ali,,1,f,0,,31,17,1671,1924,317,38,0,f,,4/16/2024,1/30/2025,,No,No,No,No,No,Yes,No,Yes,Yes,Yes,No,Yes,Yes,No,No,No,No,,,https://a0.muscache.com/im/pictures/hosting/Hosting-1110689570466338072/original/781fd754-bb82-45ea-b6dc-8a2f5a43cbf4.jpeg?aki_policy=large
32947837,Four-poster bedroom suite in a fishing village.,https://airbnb.com/rooms/32947837,23.59541,58.60486,"https://www.google.com/maps?q=23.59541,58.60486",Private room in home,private_room,1,9,2,0,0,19026113,Sami,1,2,s,0,,197,18,11099,12943,313,37,0,f,,,1/16/2026,,No,Yes,No,No,Yes,Yes,No,Yes,Yes,Yes,No,Yes,No,No,Yes,No,Yes,,,https://a0.muscache.com/im/pictures/3a78623f-4fa6-4e08-b570-4dd83e7d9bc5.jpg?aki_policy=large
1038945445819714836,cozy home in ideal location,https://airbnb.com/rooms/1038945445819714836,23.60812,58.54612,"https://www.google.com/maps?q=23.60812,58.54612",Private room in rental unit,private_room,1,2,2,90,15,549250198,Mahad,,1,f,0,16,21,47,3079,3602,312,27,0,f,,12/19/2023,1/16/2026,,Yes,No,No,No,Yes,Yes,No,Yes,Yes,Yes,Yes,No,No,No,Yes,No,Yes,,,https://a0.muscache.com/im/pictures/b1f16af7-12e0-4161-9d00-078afcaa04d0.jpg?aki_policy=large
46309298,Private Apt + King Bed + Wifi + BeIN TV + Parking~,https://airbnb.com/rooms/46309298,23.59644,58.39148,"https://www.google.com/maps?q=23.59644,58.39148",Entire rental unit,entire_home,2,2,4,100,88,6232201,Loay,3,2,m,57,,65,97,19578,23353,306,5,0,f,,,1/16/2026,,Yes,No,No,No,Yes,Yes,No,Yes,Yes,Yes,Yes,Yes,No,No,No,No,No,,,https://a0.muscache.com/im/pictures/b7047521-88af-4347-9d7b-cd98bb67d128.jpg?aki_policy=large
1113807639703832228,Deluxe Apartment,https://airbnb.com/rooms/1113807639703832228,23.579,58.338,"https://www.google.com/maps?q=23.579,58.338",Entire rental unit,entire_home,1,2,2,90,18,567228378,Mohammed,,1,m,0,,67,55,11239,13450,305,16,0,f,,4/16/2024,5/9/2025,,Yes,No,No,No,Yes,Yes,No,Yes,Yes,Yes,No,Yes,No,No,No,No,Yes,,,https://a0.muscache.com/im/pictures/hosting/Hosting-1113807639703832228/original/98f297c2-f00f-4adf-80da-3e49f731177f.jpeg?aki_policy=large
1118155643375186422,Arabian Night Nook - Oasis Haven,https://airbnb.com/rooms/1118155643375186422,23.622,58.487,"https://www.google.com/maps?q=23.622,58.487",Private room in villa,private_room,1,1,4,100,7,493609593,Majid,,1,f,0,,53,60,9699,11607,305,34,,f,,4/9/2024,1/16/2026,,Yes,No,No,Yes,Yes,No,No,Yes,Yes,Yes,No,No,No,No,No,No,No,,,https://a0.muscache.com/im/pictures/hosting/Hosting-1118155643375186422/original/79854e47-297f-42ec-8b7e-45f28a740056.jpeg?aki_policy=large
1151370528211548425,safeer international,https://airbnb.com/rooms/1151370528211548425,23.586,58.423,"https://www.google.com/maps?q=23.586,58.423",Entire guesthouse,entire_home,2,2,6,0,2,576293539,Sih,,1,-1,,,69,24,5051,6045,305,34,0,f,,7/16/2024,1/16/2026,,Yes,No,No,No,No,Yes,No,Yes,Yes,Yes,No,Yes,No,No,No,No,No,,,https://a0.muscache.com/im/pictures/miso/Hosting-1151370528211548425/original/a9a4d250-80df-493f-8e7e-d29320061035.jpeg?aki_policy=large
1114549454432464888,"Warm, cozy family ambiance",https://airbnb.com/rooms/1114549454432464888,23.597,58.398,"https://www.google.com/maps?q=23.597,58.398",Private room in rental unit,private_room,1,1,2,0,1,550663930,Nancy,,1,s,0,,44,38,5100,6103,305,30,0,f,,3/26/2024,1/16/2026,,Yes,No,No,No,No,No,No,No,Yes,Yes,No,No,No,No,No,No,No,,,https://a0.muscache.com/im/pictures/hosting/Hosting-1114549454432464888/original/77566a95-9466-4348-aa5a-da8e6161a92b.jpeg?aki_policy=large
905287,"2 min. walk from Muttrah's Waterfront ""Corniche""",https://airbnb.com/rooms/905287,23.62425,58.55994,"https://www.google.com/maps?q=23.62425,58.55994",Entire rental unit,entire_home,1,1,2,100,423,4709017,Mohammed,1,1,f,0,25,65,48,9485,11388,304,18,0,f,,,1/16/2026,,Yes,No,No,No,Yes,No,No,Yes,Yes,Yes,No,No,No,No,Yes,No,Yes,,,https://a0.muscache.com/im/pictures/e88b6d69-e6e7-49e9-817a-b9fd5f9955b6.jpg?aki_policy=large
16988031,villa in the wave muscat,https://airbnb.com/rooms/16988031,23.63,58.266,"https://www.google.com/maps?q=23.63,58.266",Entire home,entire_home,2,3,4,100,81,106788305,Naseer,1,1,f,13,0,196,56,33562,40296,304,15,,f,,,1/16/2026,,Yes,Yes,No,Yes,Yes,Yes,Yes,Yes,Yes,Yes,Yes,Yes,Yes,Yes,No,Yes,Yes,,,https://a0.muscache.com/im/pictures/97332df9-588e-4ca2-8fe3-43fe05549a5f.jpg?aki_policy=large
653385090371552553,Cozy Marsa 2 b - 5 min for Airport,https://airbnb.com/rooms/653385090371552553,23.62822,58.26945,"https://www.google.com/maps?q=23.62822,58.26945",Entire condo,entire_home,1,1,4,100,55,434715654,TheFlat,,1,f,52,130,135,87,36329,43619,304,12,,f,,1/17/2023,1/16/2026,,Yes,Yes,No,Yes,Yes,Yes,Yes,Yes,Yes,Yes,Yes,Yes,No,No,No,No,No,,,https://a0.muscache.com/im/pictures/a61e8941-7604-4294-b325-91c657c9187c.jpg?aki_policy=large
1171675909390074911,Comfortable/Clean and Affordable Place - 1798,https://airbnb.com/rooms/1171675909390074911,23.5942,58.44189,"https://www.google.com/maps?q=23.5942,58.44189",Private room in home,private_room,1,1,3,90,12,45785295,Vincent,,1,-1,,8,19,60,3466,4161,304,21,,f,,6/25/2024,1/16/2026,,Yes,No,No,Yes,Yes,Yes,No,Yes,Yes,Yes,Yes,Yes,Yes,No,No,No,No,,,https://a0.muscache.com/im/pictures/hosting/Hosting-1171675909390074911/original/2b58d1c2-86eb-4572-8262-6710bfe7acc5.jpeg?aki_policy=large
1069718077185657444,Marhaba Retreats,https://airbnb.com/rooms/1069718077185657444,23.594,58.408,"https://www.google.com/maps?q=23.594,58.408",Entire rental unit,entire_home,1,2,3,100,8,546278070,Susy,,1,f,0,,79,58,13929,16724,304,10,0,f,,1/30/2024,8/12/2025,,Yes,No,No,No,Yes,Yes,No,Yes,Yes,Yes,Yes,Yes,No,No,No,No,No,,,https://a0.muscache.com/im/pictures/hosting/Hosting-1069718077185657444/original/31d4df30-16cb-4955-82a9-4c81ad5411f7.jpeg?aki_policy=large
1063498605028398735,Marine Garden apartment Almouj,https://airbnb.com/rooms/1063498605028398735,23.63007,58.2734,"https://www.google.com/maps?q=23.63007,58.2734",Entire rental unit,entire_home,1,1,3,100,8,236232082,Ibrahim,,1,f,0,,112,32,10895,13081,304,33,0,f,,2/27/2024,1/16/2026,,Yes,Yes,No,No,No,Yes,Yes,Yes,Yes,Yes,No,Yes,Yes,No,No,No,No,,,https://a0.muscache.com/im/pictures/hosting/Hosting-1063498605028398735/original/61098319-3a6d-45ec-954f-c84cbc60cac0.jpeg?aki_policy=large
48956841,Majan Stunning Omani House Near Souq Mutrah,https://airbnb.com/rooms/48956841,23.61993,58.56798,"https://www.google.com/maps?q=23.61993,58.56798",Private room in home,private_room,1,1,4,90,8,391816755,Fort,4,1,f,0,,90,80,21888,26280,304,12,0,f,,1/6/2022,1/16/2026,,Yes,No,No,No,Yes,No,No,Yes,Yes,Yes,Yes,No,No,No,No,No,No,,,https://a0.muscache.com/im/pictures/miso/Hosting-48956841/original/9ff8b32c-548b-443d-872e-f91340efa9e0.jpeg?aki_policy=large
1073194273018222045,شقة سكوير الهادئه,https://airbnb.com/rooms/1073194273018222045,23.583,58.392,"https://www.google.com/maps?q=23.583,58.392",Entire rental unit,entire_home,2,2,5,0,2,514226318,Mohamed Salim Said,,1,f,0,,62,48,9047,10862,304,26,0,f,,2/6/2024,6/6/2025,,Yes,No,No,No,No,Yes,No,Yes,Yes,Yes,No,Yes,No,No,No,No,No,,,https://a0.muscache.com/im/pictures/hosting/Hosting-1073194273018222045/original/a1ccbb62-1665-426b-9957-7c2bbd36914d.jpeg?aki_policy=large
1044149950846560372,مسقط بوشر شارع المها رملة بوشر,https://airbnb.com/rooms/1044149950846560372,23.578,58.419,"https://www.google.com/maps?q=23.578,58.419",Entire rental unit,entire_home,2,2,5,0,2,538090518,Kayan,,1,-1,,,66,49,9831,11804,304,21,0,f,,6/4/2024,1/16/2026,,Yes,No,No,No,No,Yes,No,Yes,Yes,Yes,No,Yes,No,No,No,No,No,,,https://a0.muscache.com/im/pictures/hosting/Hosting-1044149950846560372/original/3960fb2d-6972-4652-9565-8023a9e72ba5.jpeg?aki_policy=large
1146800741360285044,chill vibe place,https://airbnb.com/rooms/1146800741360285044,23.578,58.297,"https://www.google.com/maps?q=23.578,58.297",Entire rental unit,entire_home,1,2,4,0,1,468096391,Amna,,1,-1,,,66,20,4013,4818,304,35,0,f,,5/28/2024,1/16/2026,,Yes,No,No,No,No,Yes,Yes,Yes,Yes,Yes,No,Yes,No,No,No,No,Yes,,,https://a0.muscache.com/im/pictures/hosting/Hosting-1146800741360285044/original/73e6d6c7-7b00-4abf-934f-fd1abf1b2497.jpeg?aki_policy=large
1047684150012863157,"City Gem - 2 Bedroom
3 Beds",https://airbnb.com/rooms/1047684150012863157,23.623,58.504,"https://www.google.com/maps?q=23.623,58.504",Entire rental unit,entire_home,2,3,3,0,1,165171323,Saud,,2,f,18,13,173,73,38590,46333,304,11,0,f,,1/2/2024,1/16/2026,,Yes,No,No,No,No,Yes,Yes,Yes,Yes,Yes,No,Yes,No,No,No,No,Yes,,,https://a0.muscache.com/im/pictures/miso/Hosting-1047684150012863157/original/2616cec4-fd39-47a8-aa8e-9729a9d1081a.jpeg?aki_policy=large
1069674386321133422,Muttrah Sea View,https://airbnb.com/rooms/1069674386321133422,23.62116,58.56365,"https://www.google.com/maps?q=23.62116,58.56365",Entire rental unit,entire_home,1,1,4,0,0,65311746,Ahmed,,1,s,0,,158,19,9126,10957,304,35,0,f,,2/6/2024,1/16/2026,,No,No,No,No,No,Yes,No,No,Yes,Yes,No,Yes,No,No,No,No,Yes,,,https://a0.muscache.com/im/pictures/hosting/Hosting-1069674386321133422/original/7f508f8c-8748-4dd9-bc68-07fc942b61de.jpeg?aki_policy=large
54134960,Lovely 2-bedroom apartment at AlMouj with a pool,https://airbnb.com/rooms/54134960,23.62794,58.26614,"https://www.google.com/maps?q=23.62794,58.26614",Entire rental unit,entire_home,2,2,6,100,97,72668100,Bader,1,2,m,65,13,171,61,32321,38935,303,11,0,f,,4/16/2022,1/16/2026,,Yes,No,No,No,Yes,Yes,Yes,Yes,Yes,Yes,Yes,Yes,No,No,No,Yes,No,,,https://a0.muscache.com/im/pictures/miso/Hosting-54134960/original/d242de51-aa73-487e-a4b4-709798819c10.jpeg?aki_policy=large
43489823,"Luxury 1-bedroom Apt. @ The Walk, Almouj, The Wave",https://airbnb.com/rooms/43489823,23.62802,58.26519,"https://www.google.com/maps?q=23.62802,58.26519",Entire rental unit,entire_home,1,1,2,100,62,31969506,Hilal,1,2,f,35,,114,71,24945,30049,303,12,0,f,,,1/16/2026,,Yes,Yes,No,No,Yes,Yes,Yes,Yes,Yes,Yes,Yes,Yes,No,No,No,No,No,,,https://a0.muscache.com/im/pictures/hosting/Hosting-43489823/original/ab25c8bf-1390-499a-ab02-d3b66220ddc9.jpeg?aki_policy=large
744873990887716468,Standard 4 bed room villa,https://airbnb.com/rooms/744873990887716468,23.64282,58.21051,"https://www.google.com/maps?q=23.64282,58.21051",Entire villa,entire_home,4,6,12,90,57,458008292,Abdulaziz,,1,s,0,,205,37,22983,27686,303,12,,f,,1/17/2023,1/16/2026,,Yes,No,No,Yes,Yes,Yes,No,Yes,Yes,Yes,No,Yes,Yes,No,No,No,No,,,https://a0.muscache.com/im/pictures/miso/Hosting-744873990887716468/original/cad3c064-641c-403d-bebd-50f9f1bcc4cb.jpeg?aki_policy=large
38668187,Guest room in Qantab village,https://airbnb.com/rooms/38668187,23.56096,58.62728,"https://www.google.com/maps?q=23.56096,58.62728",Private room in home,private_room,1,1,2,100,52,171534241,Abdullah,8,1,f,0,,27,32,2618,3154,303,9,0,f,,,1/16/2026,,Yes,No,No,No,Yes,Yes,No,Yes,Yes,Yes,Yes,Yes,No,No,No,No,No,,,https://a0.muscache.com/im/pictures/6677d5cc-6695-4b78-bbf6-c79a2a9ad9ee.jpg?aki_policy=large
1035432386688869338,Old Muscat- Sidab,https://airbnb.com/rooms/1035432386688869338,23.605,58.6,"https://www.google.com/maps?q=23.605,58.6",Entire guest suite,entire_home,1,1,2,100,40,187676663,Mazin,,2,f,0,,32,60,5818,7008,303,31,0,f,,12/5/2023,1/16/2026,,Yes,No,No,No,No,Yes,No,No,Yes,Yes,Yes,No,No,No,No,No,No,,,https://a0.muscache.com/im/pictures/miso/Hosting-1035432386688869338/original/c1e023b2-21c2-4e86-8af4-20a5deafbbe5.jpeg?aki_policy=large
623069034977410669,Lovely 2 bedroom apartment for family,https://airbnb.com/rooms/623069034977410669,23.63,58.494,"https://www.google.com/maps?q=23.63,58.494",Entire vacation home,entire_home,2,3,4,90,28,458231856,Sabah,,1,f,0,,85,58,14938,17995,303,20,0,f,,1/17/2023,1/16/2026,,Yes,No,Yes,No,Yes,Yes,Yes,Yes,Yes,Yes,No,Yes,No,No,No,No,No,,,https://a0.muscache.com/im/pictures/miso/Hosting-623069034977410669/original/1041a8e8-ebe0-4e4b-963a-703b47445876.jpeg?aki_policy=large
1078687955320298302,Premier Qurum Suite Location close to beach,https://airbnb.com/rooms/1078687955320298302,23.63,58.485,"https://www.google.com/maps?q=23.63,58.485",Private room in home,private_room,1,2,2,100,22,557923135,Lynette,,3,m,13,,56,49,8665,10438,303,27,0,f,,2/6/2024,1/16/2026,,Yes,No,No,No,No,Yes,No,No,Yes,Yes,No,No,No,No,No,No,No,,,https://a0.muscache.com/im/pictures/miso/Hosting-1078687955320298302/original/4d0de950-da8d-4bb9-8cb0-6c29e69cbff0.jpeg?aki_policy=large
1077891699731801640,Prestine Beach/Spacious/Comfortable Villa OGP1352,https://airbnb.com/rooms/1077891699731801640,23.56193,58.62919,"https://www.google.com/maps?q=23.56193,58.62919",Entire home,entire_home,4,6,16,90,18,45785295,Vincent,,1,f,39,39,194,48,28956,34881,303,19,0,f,,2/6/2024,9/5/2025,,Yes,No,No,No,Yes,Yes,Yes,Yes,Yes,Yes,No,Yes,Yes,No,No,No,No,,,https://a0.muscache.com/im/pictures/hosting/Hosting-1077891699731801640/original/6e35b98e-48f9-480b-9290-ca2443c7651a.jpeg?aki_policy=large
42400489,Middle of everywhere,https://airbnb.com/rooms/42400489,23.541,58.356,"https://www.google.com/maps?q=23.541,58.356",Entire condo,entire_home,2,2,4,100,5,184429915,Issa,,2,f,0,,84,50,12726,15330,303,5,,f,,5/24/2022,1/16/2026,,Yes,No,No,Yes,Yes,Yes,No,Yes,Yes,Yes,Yes,Yes,No,No,No,No,No,,,https://a0.muscache.com/im/pictures/0779750b-694b-48fd-ae9a-6613a5ed6bee.jpg?aki_policy=large
610309853528811833,Amazing Marsa Gardens Flat with garden & pool view,https://airbnb.com/rooms/610309853528811833,23.63066,58.27097,"https://www.google.com/maps?q=23.63066,58.27097",Entire condo,entire_home,2,2,6,90,60,434715654,TheFlat,,1,f,52,182,134,54,22685,27417,302,16,,f,,1/17/2023,1/16/2026,,Yes,No,Yes,Yes,Yes,Yes,Yes,Yes,Yes,Yes,Yes,Yes,Yes,No,No,No,Yes,,,https://a0.muscache.com/im/pictures/fcc5c478-ca6d-46c4-ad5c-72bd3ff5a9c4.jpg?aki_policy=large
958488150137631727,Kama Place,https://airbnb.com/rooms/958488150137631727,23.613,58.466,"https://www.google.com/maps?q=23.613,58.466",Entire rental unit,entire_home,2,2,4,100,40,269773529,Ilya,,2,m,26,,111,84,28600,34566,302,17,0,f,,11/8/2023,1/16/2026,,Yes,No,No,No,Yes,Yes,No,Yes,Yes,Yes,No,Yes,No,No,No,No,No,,,https://a0.muscache.com/im/pictures/miso/Hosting-958488150137631727/original/bd21c94b-36b5-4b7a-ac71-120a6a380fa2.jpeg?aki_policy=large
953615494321167997,One Bedroom DT,https://airbnb.com/rooms/953615494321167997,23.62885,58.23274,"https://www.google.com/maps?q=23.62885,58.23274",Entire rental unit,entire_home,1,1,2,0,2,201601975,Khalid,,2,s,13,26,71,45,9714,11740,302,5,,f,,11/8/2023,10/10/2025,,Yes,No,No,Yes,Yes,Yes,No,Yes,Yes,Yes,Yes,Yes,Yes,No,No,No,No,,,https://a0.muscache.com/im/pictures/miso/Hosting-953615494321167997/original/cb7b8381-cc72-4bd7-8bca-8b5549d6bbbe.jpeg?aki_policy=large
585765385674253241,Prime Location Apartment at Muscat Grand Mall,https://airbnb.com/rooms/585765385674253241,23.59,58.412,"https://www.google.com/maps?q=23.59,58.412",Entire rental unit,entire_home,1,2,3,100,82,249207781,Mazin,,1,m,0,,86,90,23297,28251,301,24,0,f,,1/17/2023,1/16/2026,,Yes,No,No,No,Yes,Yes,No,Yes,Yes,Yes,Yes,Yes,No,No,No,No,Yes,,,https://a0.muscache.com/im/pictures/hosting/Hosting-U3RheVN1cHBseUxpc3Rpbmc6NTg1NzY1Mzg1Njc0MjUzMjQx/original/0e5fcaa3-e28d-407c-a1b3-7dd9ff45306e.jpeg?aki_policy=large
1045540813913525550,Sukoon  Luxurious Apartment Near The Beach 76,https://airbnb.com/rooms/1045540813913525550,23.6,58.401,"https://www.google.com/maps?q=23.6,58.401",Entire rental unit,entire_home,1,1,3,100,60,496165069,Sukoon,,2,f,0,16,86,75,19414,23542,301,14,0,f,,12/26/2023,1/16/2026,,Yes,No,No,No,Yes,Yes,No,Yes,Yes,Yes,Yes,Yes,No,No,No,Yes,Yes,,,https://a0.muscache.com/im/pictures/hosting/Hosting-1045540813913525550/original/435559e8-9814-406b-9d46-6afc99f37e60.jpeg?aki_policy=large
799706510577529712,Woody Flat,https://airbnb.com/rooms/799706510577529712,23.62924,58.26855,"https://www.google.com/maps?q=23.62924,58.26855",Entire condo,entire_home,2,2,6,90,54,434715654,Abdulla,,1,f,52,13,125,57,22070,26763,301,12,,f,,2/23/2023,10/10/2025,,Yes,No,No,Yes,Yes,Yes,Yes,Yes,Yes,Yes,Yes,Yes,No,No,No,No,No,,,https://a0.muscache.com/im/pictures/aeef1c84-1d4c-4907-b5cf-77306337e1ab.jpg?aki_policy=large
16172682,Bedroom and private bathroom  2 mins from beach.,https://airbnb.com/rooms/16172682,23.61573,58.47093,"https://www.google.com/maps?q=23.61573,58.47093",Entire rental unit,entire_home,1,1,3,100,24,105572392,Hilde,1,2,s,0,23,67,37,7437,9048,300,5,0,f,,,1/16/2026,,Yes,No,No,No,Yes,Yes,No,Yes,Yes,Yes,No,Yes,No,No,No,Yes,No,,,https://a0.muscache.com/im/pictures/78d56e30-729e-46f7-8705-7dd61694e46e.jpg?aki_policy=large
941698205020624323,Nice room's next to sea muscat,https://airbnb.com/rooms/941698205020624323,23.56519,58.36631,"https://www.google.com/maps?q=23.56519,58.36631",Private room in guesthouse,private_room,1,1,2,0,1,508185112,Zahra,,1,f,0,,26,13,1014,1234,300,25,0,f,,11/8/2023,1/16/2026,,Yes,No,No,No,No,Yes,No,Yes,Yes,Yes,No,Yes,No,No,No,No,Yes,,,https://a0.muscache.com/im/pictures/173c4f01-e556-47f7-bbf0-88014b2010c1.jpg?aki_policy=large
47470686,Comfortable/Clean and Affordable Place OGP1865,https://airbnb.com/rooms/47470686,23.5918,58.4409,"https://www.google.com/maps?q=23.5918,58.4409",Private room in villa,private_room,1,1,3,90,45,45785295,Vincent,35,1,f,25,6,22,61,4199,5143,298,8,0,f,,,6/6/2025,,Yes,No,No,No,Yes,Yes,No,Yes,Yes,Yes,Yes,Yes,Yes,No,No,No,No,,,https://a0.muscache.com/im/pictures/d6131746-8984-48b3-8bf2-77691ced5408.jpg?aki_policy=large
1021183284435165272,A place to stay with pleasure,https://airbnb.com/rooms/1021183284435165272,23.57758,58.40307,"https://www.google.com/maps?q=23.57758,58.40307",Private room in rental unit,private_room,1,1,2,0,0,542414129,Ali,,1,f,0,,28,15,1252,1533,298,28,0,f,,11/21/2023,1/16/2026,,Yes,No,No,No,No,Yes,No,Yes,Yes,Yes,No,Yes,No,No,No,No,No,,,https://a0.muscache.com/im/pictures/miso/Hosting-1021183284435165272/original/ffbf1a59-2f99-43c5-afa0-3bf21eceec1f.jpeg?aki_policy=large
1341487394575329692,Lovely Omani Home. Peaceful Oasis in the City.,https://airbnb.com/rooms/1341487394575329692,23.539417218696777,58.40270172913056,"https://www.google.com/maps?q=23.539417218696777,58.40270172913056",Entire home,entire_home,2,3,4,0,0,4449531,Ali,,3,-1,,,96,22,6294,7709,298,37,0,f,,2/4/2025,1/16/2026,,Yes,No,No,No,No,Yes,No,Yes,Yes,Yes,No,Yes,Yes,No,No,No,Yes,,,https://a0.muscache.com/im/pictures/hosting/Hosting-1341487394575329692/original/431f5797-48ba-4b09-bb32-dc8f5a03ab5f.jpeg?aki_policy=large
20439807,"Flat in Mabela 2 rooms, hall, 2 toilets, kitchen",https://airbnb.com/rooms/20439807,23.59269,58.41862,"https://www.google.com/maps?q=23.59269,58.41862",Entire rental unit,entire_home,2,2,6,0,0,141825688,Mohamed,1,2,f,0,,69,17,3484,4282,297,33,,f,,,10/10/2025,,Yes,No,No,Yes,No,Yes,No,Yes,Yes,Yes,Yes,Yes,No,No,No,No,No,,,https://a0.muscache.com/im/pictures/f9c0b2de-329f-45e6-891f-45b0e43dfa60.jpg?aki_policy=large
1036853841732790954,VILLA seeb 2 MIN walk to the beach,https://airbnb.com/rooms/1036853841732790954,23.68822,58.16651,"https://www.google.com/maps?q=23.68822,58.16651",Entire villa,entire_home,3,3,5,100,5,263188277,Samar,,1,f,0,,122,67,24195,29835,296,10,0,f,,3/12/2024,1/16/2026,,Yes,No,No,No,Yes,Yes,No,Yes,Yes,Yes,No,Yes,No,No,No,Yes,Yes,,,https://a0.muscache.com/im/pictures/hosting/Hosting-1036853841732790954/original/1cca1c07-1446-4377-8d9e-35e8d6222c41.jpeg?aki_policy=large
1166770799171677848,Remal Boushar 2,https://airbnb.com/rooms/1166770799171677848,23.558,58.412,"https://www.google.com/maps?q=23.558,58.412",Entire rental unit,entire_home,2,2,5,70,5,534966996,Abdullah,,1,-1,,,58,33,5665,6986,296,32,0,f,,6/11/2024,11/25/2025,,Yes,No,No,No,No,Yes,No,Yes,Yes,Yes,No,Yes,No,No,No,No,No,,,https://a0.muscache.com/im/pictures/hosting/Hosting-1166770799171677848/original/f91f2b3c-439a-461d-ab0f-add3dfa9fa2d.jpeg?aki_policy=large
894671066220076522,Large 1 Bedroom Apt. in Bousher,https://airbnb.com/rooms/894671066220076522,23.55449,58.40005,"https://www.google.com/maps?q=23.55449,58.40005",Entire rental unit,entire_home,1,2,2,100,9,95147929,Mike,,3,f,0,,48,78,11045,13666,295,7,0,f,,7/31/2023,1/16/2026,,Yes,No,No,No,No,Yes,No,Yes,Yes,Yes,No,Yes,No,No,No,No,No,,,https://a0.muscache.com/im/pictures/miso/Hosting-894671066220076522/original/265ba2cc-1a0c-49f4-9445-c8ce36ec44b2.jpeg?aki_policy=large
1077861085977783716,Private and quite room,https://airbnb.com/rooms/1077861085977783716,23.63063,58.2651,"https://www.google.com/maps?q=23.63063,58.2651",Private room in rental unit,private_room,1,1,2,100,8,256845432,Utopia,,1,f,0,,79,31,7176,8939,293,33,0,f,,4/9/2024,1/2/2026,,Yes,No,No,No,No,Yes,Yes,Yes,Yes,Yes,No,No,No,No,No,No,No,,,https://a0.muscache.com/im/pictures/miso/Hosting-1077861085977783716/original/f92eed8d-7a23-463f-a3e4-ec4be22c1826.jpeg?aki_policy=large
1345694980040155997,غرفة داخل شقه  قريبة من المطار,https://airbnb.com/rooms/1345694980040155997,23.587,58.369,"https://www.google.com/maps?q=23.587,58.369",Private room in condo,private_room,1,1,3,90,21,484942411,Hassan,,1,-1,,,23,40,2686,3358,292,23,0,f,,2/11/2025,1/16/2026,,Yes,No,No,No,No,No,No,Yes,Yes,Yes,No,Yes,No,No,No,No,No,,,https://a0.muscache.com/im/pictures/hosting/Hosting-1345694980040155997/original/b2b45f35-d2d9-4b76-a58b-60e7be042665.jpeg?aki_policy=large
943321449414411925,Luxury One bed apartment near the beach 92,https://airbnb.com/rooms/943321449414411925,23.60409,58.34146,"https://www.google.com/maps?q=23.60409,58.34146",Entire rental unit,entire_home,1,2,3,100,22,496165069,Sukoon,,2,f,26,21,96,81,23018,28871,291,15,,f,,8/22/2023,1/16/2026,,Yes,No,No,Yes,Yes,Yes,No,Yes,Yes,Yes,Yes,Yes,No,Yes,No,Yes,Yes,,,https://a0.muscache.com/im/pictures/hosting/Hosting-943321449414411925/original/eb6da429-bd85-4cd5-b662-f5ad3ded6048.jpeg?aki_policy=large
1162705584446412900,Luxurious Hostel,https://airbnb.com/rooms/1162705584446412900,23.592,58.404,"https://www.google.com/maps?q=23.592,58.404",Private room in villa,private_room,1,1,3,100,4,569708774,Majid,,1,-1,,,39,21,2375,2989,290,32,,f,,5/28/2024,1/16/2026,,Yes,No,No,Yes,Yes,Yes,No,Yes,Yes,Yes,Yes,Yes,Yes,No,No,No,No,,,https://a0.muscache.com/im/pictures/hosting/Hosting-1162705584446412900/original/953e824f-6e99-4e3a-b7b1-e5033250cb1d.png?aki_policy=large
1202121440014053410,An amazing place in Muscat!,https://airbnb.com/rooms/1202121440014053410,23.60016,58.35659,"https://www.google.com/maps?q=23.60016,58.35659",Private room in rental unit,private_room,1,2,4,0,1,79895790,Ali,,1,-1,,,22,97,6146,7789,288,25,0,f,,7/23/2024,9/5/2025,,Yes,No,No,No,No,Yes,No,Yes,Yes,Yes,No,Yes,No,No,No,No,No,,,https://a0.muscache.com/im/pictures/miso/Hosting-1202121440014053410/original/216000b2-048f-45a0-9a01-735e7b76c0d8.jpeg?aki_policy=large
1084737515757245115,Beachfront 2BHK apartment @ AlMouj,https://airbnb.com/rooms/1084737515757245115,23.631,58.266,"https://www.google.com/maps?q=23.631,58.266",Entire rental unit,entire_home,2,2,5,100,37,552075915,Amal,,30,m,26,,167,60,28795,37008,284,13,,f,,2/20/2024,1/16/2026,,Yes,No,Yes,Yes,Yes,Yes,Yes,Yes,Yes,Yes,No,Yes,Yes,No,No,No,Yes,,,https://a0.muscache.com/im/pictures/hosting/Hosting-1084737515757245115/original/7e314338-42ca-4e26-9026-e7aeaa223160.jpeg?aki_policy=large
852564434130266142,Muscat Hills/ Cozy pool view 1 BHK/ Self Check In,https://airbnb.com/rooms/852564434130266142,23.5767,58.30269,"https://www.google.com/maps?q=23.5767,58.30269",Entire rental unit,entire_home,1,2,2,100,34,363591131,Mohammed,,1,s,40,,102,55,16180,21320,277,16,0,f,,5/22/2023,1/16/2026,,Yes,No,No,No,Yes,Yes,Yes,Yes,Yes,Yes,No,Yes,No,No,No,No,Yes,,,https://a0.muscache.com/im/pictures/fe4fc22b-0e1c-4086-af6c-6cb583d3e155.jpg?aki_policy=large
1095512494614139045,beachside Room,https://airbnb.com/rooms/1095512494614139045,23.602,58.379,"https://www.google.com/maps?q=23.602,58.379",Private room in home,private_room,1,1,2,0,0,123838301,Sirianong,,5,f,0,,46,16,2031,2686,276,28,0,f,,3/19/2024,1/16/2026,,Yes,No,No,No,Yes,No,No,Yes,Yes,Yes,No,No,Yes,No,No,No,No,,,https://a0.muscache.com/im/pictures/hosting/Hosting-1095512494614139045/original/895b0bd2-2776-4b96-b452-d8562703af6b.jpeg?aki_policy=large
1341304818688173516,Partition rooms without window. Shared bathroom,https://airbnb.com/rooms/1341304818688173516,23.599135672467526,58.356722140223646,"https://www.google.com/maps?q=23.599135672467526,58.356722140223646",Private room in home,private_room,1,2,1,100,59,652145747,Allan Jay,,1,-1,,,12,52,1716,2278,275,26,0,f,,2/4/2025,1/16/2026,,Yes,No,No,No,Yes,Yes,No,Yes,Yes,Yes,Yes,No,Yes,No,No,No,No,,,https://a0.muscache.com/im/pictures/hosting/Hosting-1335955493381363613/original/31e1b969-3efb-4f2a-90b7-c30e51afa807.jpeg?aki_policy=large
1093932328038856170,Al Juman Apartment,https://airbnb.com/rooms/1093932328038856170,23.565,58.405,"https://www.google.com/maps?q=23.565,58.405",Entire rental unit,entire_home,2,2,5,100,21,556026169,Fahad,,2,f,0,,68,64,11968,15885,275,18,0,f,,4/16/2024,1/16/2026,,Yes,No,No,No,Yes,Yes,No,Yes,Yes,Yes,No,Yes,No,No,No,No,No,,,https://a0.muscache.com/im/pictures/hosting/Hosting-1093932328038856170/original/75ca7366-f307-48df-aab9-598d421eea2b.jpeg?aki_policy=large
1239514298234336410,One bedroom apartment 2,https://airbnb.com/rooms/1239514298234336410,23.562,58.409,"https://www.google.com/maps?q=23.562,58.409",Entire rental unit,entire_home,1,1,3,100,47,202748922,Mohammed,,1,-1,,,57,90,14056,18724,274,20,0,f,,9/10/2024,1/16/2026,,Yes,No,Yes,No,Yes,Yes,Yes,Yes,Yes,Yes,Yes,Yes,No,No,No,No,No,,,https://a0.muscache.com/im/pictures/hosting/Hosting-1239514298234336410/original/7004918e-99eb-4864-aca9-4e8569d7e808.jpeg?aki_policy=large
1159938238407149317,"Qurum 2-BDR flat with parking, Shops & Restaurants",https://airbnb.com/rooms/1159938238407149317,23.623855386455354,58.50303943762386,"https://www.google.com/maps?q=23.623855386455354,58.50303943762386",Entire rental unit,entire_home,2,3,4,100,41,194112201,Zahir,,1,-1,,,91,55,13714,18269,274,18,0,f,,5/28/2024,1/16/2026,,Yes,No,Yes,No,Yes,Yes,Yes,Yes,Yes,Yes,Yes,Yes,No,No,No,No,No,,,https://a0.muscache.com/im/pictures/hosting/Hosting-1159938238407149317/original/54e929d4-0474-43e0-b8da-c35b7a743d1d.jpeg?aki_policy=large
1141825257838747521,Budget Room in Gorgeous Retreat,https://airbnb.com/rooms/1141825257838747521,23.563,58.629,"https://www.google.com/maps?q=23.563,58.629",Private room in nature lodge,private_room,1,1,2,100,24,490707781,Erica,,1,-1,,,82,42,9437,12571,274,24,0,f,,5/28/2024,1/16/2026,,Yes,No,No,No,No,No,No,No,Yes,Yes,No,No,No,No,Yes,Yes,No,,,https://a0.muscache.com/im/pictures/miso/Hosting-1141825257838747521/original/449cbcb5-c441-4da1-886d-4bd86571c0bf.jpeg?aki_policy=large
1141748624198189946,Peaceful Mountain View King Room,https://airbnb.com/rooms/1141748624198189946,23.563,58.629,"https://www.google.com/maps?q=23.563,58.629",Private room in guesthouse,private_room,1,1,3,100,10,490707781,Erica,,1,-1,,,150,39,16029,21352,274,19,0,f,,5/14/2024,1/16/2026,,Yes,No,No,No,No,No,No,No,Yes,Yes,No,No,No,No,No,No,Yes,,,https://a0.muscache.com/im/pictures/miso/Hosting-1060022397745260517/original/8afc8025-0721-4474-8cc8-0d11c36afd94.jpeg?aki_policy=large
1280179592421800568,Private En-suite,https://airbnb.com/rooms/1280179592421800568,23.591538754361075,58.40463274661795,"https://www.google.com/maps?q=23.591538754361075,58.40463274661795",Private room in rental unit,private_room,1,1,2,100,10,523691538,Fahimeh,,1,-1,,8,24,75,4932,6570,274,17,0,f,,11/19/2024,9/5/2025,,No,No,No,No,Yes,No,No,Yes,Yes,Yes,No,No,No,No,No,No,No,,,https://a0.muscache.com/im/pictures/hosting/Hosting-1280179592421800568/original/0056b547-7795-4a67-8dc9-6ed940ec4eb4.jpeg?aki_policy=large
1239912720407360293,Opera67 Spacious & Central,https://airbnb.com/rooms/1239912720407360293,23.571,58.419,"https://www.google.com/maps?q=23.571,58.419",Entire rental unit,entire_home,2,2,4,0,2,428575788,Sultan,,1,-1,,,66,52,9404,12527,274,34,0,f,,10/1/2024,1/16/2026,,Yes,No,No,No,Yes,Yes,No,Yes,Yes,Yes,No,Yes,No,No,No,No,No,,,https://a0.muscache.com/im/pictures/hosting/Hosting-1239912720407360293/original/af0b8103-6c2b-4533-95e5-af0821b41f6b.jpeg?aki_policy=large
1184145397479368278,Luxurious flat in Bousher,https://airbnb.com/rooms/1184145397479368278,23.57356,58.40958,"https://www.google.com/maps?q=23.57356,58.40958",Entire rental unit,entire_home,2,2,5,0,1,463439576,Laith,,1,-1,,,71,16,3113,4147,274,32,0,f,,7/16/2024,1/16/2026,,Yes,No,No,No,No,Yes,No,Yes,Yes,Yes,No,Yes,No,No,No,No,No,,,https://a0.muscache.com/im/pictures/hosting/Hosting-1184145397479368278/original/2e9b871b-ef3e-47b9-8c51-5b788682ad85.jpeg?aki_policy=large
31892415,Nice place with amenities and outdoor seating,https://airbnb.com/rooms/31892415,23.598,58.385,"https://www.google.com/maps?q=23.598,58.385",Private room in rental unit,private_room,1,1,2,100,105,239035128,Arsalan,2,1,s,0,,17,42,1949,2606,273,16,0,f,,,1/16/2026,,Yes,No,No,No,Yes,Yes,No,Yes,Yes,Yes,No,No,No,No,No,No,No,,,https://a0.muscache.com/im/pictures/d9127c3a-2b2c-412e-a6b3-af9a3bacb884.jpg?aki_policy=large
41474982,Matrah Heart-4,https://airbnb.com/rooms/41474982,23.61239,58.5493,"https://www.google.com/maps?q=23.61239,58.5493",Shared room in rental unit,shared_room,1,0,1,100,90,221857979,Khalid,0,1,f,0,14,11,22,661,884,273,9,,f,,,1/16/2026,,Yes,No,No,Yes,Yes,Yes,No,Yes,Yes,Yes,Yes,Yes,No,No,No,No,Yes,,,https://a0.muscache.com/im/pictures/hosting/Hosting-U3RheVN1cHBseUxpc3Rpbmc6NDE0NzQ5ODI%3D/original/3b8a715c-9df0-45ce-9391-8bf61b5a151a.jpeg?aki_policy=large
1075377417392508140,"#➊ 1BHK Near Airport, Pool, Parking",https://airbnb.com/rooms/1075377417392508140,23.576,58.299,"https://www.google.com/maps?q=23.576,58.299",Entire rental unit,entire_home,1,2,4,100,68,127073037,Haitham,,1,f,0,,99,39,10541,14093,273,29,,f,,1/30/2024,11/7/2025,,Yes,No,No,Yes,Yes,Yes,Yes,Yes,Yes,Yes,No,Yes,No,No,No,No,No,,,https://a0.muscache.com/im/pictures/miso/Hosting-1075377417392508140/original/9d7c7bb5-1086-4cb9-8c1c-596b1d405748.jpeg?aki_policy=large
724265678302258553,Luxury 1 modern  bedroom flat with pool view.,https://airbnb.com/rooms/724265678302258553,23.57584,58.41323,"https://www.google.com/maps?q=23.57584,58.41323",Entire rental unit,entire_home,1,2,3,90,64,179183097,Dunes,,1,f,0,,78,30,6388,8541,273,15,,f,,1/17/2023,1/16/2026,,Yes,No,Yes,Yes,No,Yes,Yes,Yes,Yes,Yes,Yes,Yes,Yes,No,No,No,Yes,,,https://a0.muscache.com/im/pictures/miso/Hosting-724265678302258553/original/4e232bc1-e34c-4d1b-983c-ea1d283d3b39.jpeg?aki_policy=large
1135136816187894329,24 Hujra Apartment,https://airbnb.com/rooms/1135136816187894329,23.604,58.247,"https://www.google.com/maps?q=23.604,58.247",Entire condo,entire_home,2,2,4,100,61,35121311,Ibrahim,,1,f,0,,63,61,10491,14026,273,27,0,f,,5/7/2024,1/16/2026,,Yes,No,Yes,No,Yes,Yes,No,Yes,Yes,Yes,No,Yes,No,No,No,No,No,,,https://a0.muscache.com/im/pictures/hosting/Hosting-U3RheVN1cHBseUxpc3Rpbmc6MTEzNTEzNjgxNjE4Nzg5NDMyOQ==/original/b13a8011-8606-4fc8-b9fb-52b009cafdc6.jpeg?aki_policy=large
906343820414177208,"The Balcony/Entire Penthouse
Bays and marine view",https://airbnb.com/rooms/906343820414177208,23.61459,58.55833,"https://www.google.com/maps?q=23.61459,58.55833",Entire rental unit,entire_home,1,2,2,100,43,314630767,Tiinaaa,,2,f,0,0,77,51,10721,14334,273,22,0,f,,7/31/2023,1/16/2026,,Yes,No,No,No,Yes,Yes,No,Yes,Yes,Yes,Yes,Yes,No,No,No,No,Yes,,,https://a0.muscache.com/im/pictures/beb1a8b4-9526-4c2f-8d94-b4133a3bd9d3.jpg?aki_policy=large
1186566033869809153,"Muscat Hills Avenue

Private Aprtmnt
Pool, Parking",https://airbnb.com/rooms/1186566033869809153,23.578,58.3,"https://www.google.com/maps?q=23.578,58.3",Entire rental unit,entire_home,1,2,4,100,41,537840006,Mehran,,1,-1,,,60,86,14087,18834,273,17,,f,,7/2/2024,1/16/2026,,Yes,No,Yes,Yes,Yes,Yes,Yes,Yes,Yes,Yes,Yes,Yes,No,No,No,No,No,,,https://a0.muscache.com/im/pictures/hosting/Hosting-U3RheVN1cHBseUxpc3Rpbmc6MTE4NjU2NjAzMzg2OTgwOTE1Mw%3D%3D/original/ad3d0e17-1382-45ef-9e2b-675458050147.jpeg?aki_policy=large
828747415511301115,The Gray Cozy Flat,https://airbnb.com/rooms/828747415511301115,23.62905,58.26523,"https://www.google.com/maps?q=23.62905,58.26523",Entire rental unit,entire_home,2,2,4,100,39,434715654,Abdulla,,1,f,52,13,177,55,27253,36437,273,13,,f,,5/22/2023,10/10/2025,,Yes,Yes,No,Yes,Yes,Yes,Yes,Yes,Yes,Yes,Yes,Yes,Yes,No,No,No,No,,,https://a0.muscache.com/im/pictures/8db6b0d9-5e40-4705-98d9-065807862711.jpg?aki_policy=large
557727087869434842,Sea Breeze Pvt Room + Beachfront,https://airbnb.com/rooms/557727087869434842,23.573,58.611,"https://www.google.com/maps?q=23.573,58.611",Private room in rental unit,private_room,1,1,2,100,35,634218,Nedal,,1,f,0,21,43,42,4930,6591,273,13,,f,,1/17/2023,1/16/2026,,Yes,No,No,Yes,Yes,Yes,No,Yes,Yes,Yes,No,No,No,No,No,Yes,Yes,,,https://a0.muscache.com/im/pictures/a1b6e497-9de0-4335-b68e-4300efce149a.jpg?aki_policy=large
1245599194138168338,Cozy & VERY Private 1bedroom flat,https://airbnb.com/rooms/1245599194138168338,23.591,58.414,"https://www.google.com/maps?q=23.591,58.414",Entire rental unit,entire_home,1,2,3,100,33,30876461,Pauline Denise,,1,-1,,,86,70,16435,21974,273,25,0,f,,10/1/2024,1/16/2026,,Yes,No,No,No,Yes,Yes,No,Yes,Yes,Yes,No,Yes,No,No,No,No,No,,,https://a0.muscache.com/im/pictures/hosting/Hosting-1245599194138168338/original/b23f7c9a-4181-4642-885c-5e8354f73b43.jpeg?aki_policy=large
830887085075603927,"super large room, privet bathroom, sea view",https://airbnb.com/rooms/830887085075603927,23.6277,58.4844,"https://www.google.com/maps?q=23.6277,58.4844",Private room in villa,private_room,1,1,2,100,29,3980824,William,,1,s,4,0,29,83,6639,8876,273,17,0,f,,5/22/2023,1/16/2026,,Yes,Yes,No,No,No,Yes,No,Yes,Yes,Yes,No,No,Yes,No,No,No,Yes,,,https://a0.muscache.com/im/pictures/hosting/Hosting-830887085075603927/original/3b0eee70-af79-432d-afb3-31089a75574f.jpeg?aki_policy=large
53568288,Ramadi En-suite : : Beachfront,https://airbnb.com/rooms/53568288,23.573,58.611,"https://www.google.com/maps?q=23.573,58.611",Private room in rental unit,private_room,1,1,3,100,29,634218,Nedal,2,1,f,0,23,50,45,6142,8212,273,16,0,f,,1/6/2022,1/16/2026,,Yes,No,No,No,Yes,Yes,No,Yes,Yes,Yes,Yes,No,No,No,Yes,Yes,No,,,https://a0.muscache.com/im/pictures/miso/Hosting-53568288/original/7daf6d61-1eb5-4f5d-b373-758642b2104f.png?aki_policy=large
1136876090536547519,Old Muscat - private room 1,https://airbnb.com/rooms/1136876090536547519,23.6163,58.58863,"https://www.google.com/maps?q=23.6163,58.58863",Private room in rental unit,private_room,1,1,2,90,24,187676663,Mazin,,2,f,0,,34,37,3434,4591,273,11,0,f,,5/7/2024,1/16/2026,,Yes,No,No,No,No,Yes,No,Yes,Yes,Yes,Yes,No,No,No,No,No,Yes,,,https://a0.muscache.com/im/pictures/hosting/Hosting-1136876090536547519/original/449ae342-bb73-49a9-b35a-83e25f40b2ac.png?aki_policy=large
1012311790021697715,Beautiful 2BR Townhouse,https://airbnb.com/rooms/1012311790021697715,23.63,58.27,"https://www.google.com/maps?q=23.63,58.27",Entire home,entire_home,2,3,3,100,21,533109381,Amani,,2,f,0,26,110,87,26126,34930,273,14,0,f,,11/21/2023,8/12/2025,,Yes,Yes,No,No,Yes,Yes,Yes,Yes,Yes,Yes,No,Yes,No,No,No,No,No,,,https://a0.muscache.com/im/pictures/21fe9da3-c229-4395-986b-a7a92058ecff.jpg?aki_policy=large
1060022397745260517,Sea View Room In Yoga Retreat,https://airbnb.com/rooms/1060022397745260517,23.563,58.629,"https://www.google.com/maps?q=23.563,58.629",Private room in guesthouse,private_room,1,1,2,100,20,490707781,Erica,,1,-1,,,150,41,16789,22447,273,16,,f,,8/27/2024,1/16/2026,,Yes,No,No,Yes,No,No,No,No,Yes,Yes,No,No,No,No,No,No,Yes,,,https://a0.muscache.com/im/pictures/miso/Hosting-1060022397745260517/original/8afc8025-0721-4474-8cc8-0d11c36afd94.jpeg?aki_policy=large
7915908,Ruwi SofteyIceCream building.,https://airbnb.com/rooms/7915908,23.59078,58.54195,"https://www.google.com/maps?q=23.59078,58.54195",Entire rental unit,entire_home,2,1,6,90,20,38623548,Omar,,1,m,13,10,35,41,4061,5430,273,11,0,f,,5/22/2023,1/16/2026,,Yes,No,No,No,No,Yes,No,Yes,Yes,Yes,No,Yes,No,No,No,No,No,,,https://a0.muscache.com/im/pictures/miso/Hosting-7915908/original/30ec00fe-3536-484b-b402-08011cc4f51b.jpeg?aki_policy=large
1252489917590992080,Modern 1BHK Getaway Near PDO,https://airbnb.com/rooms/1252489917590992080,23.621,58.501,"https://www.google.com/maps?q=23.621,58.501",Entire rental unit,entire_home,1,2,3,100,16,458231856,Sabah,,1,-1,,,60,80,13104,17520,273,23,0,f,,10/1/2024,1/16/2026,,Yes,No,No,No,No,Yes,No,Yes,Yes,Yes,No,Yes,No,No,No,No,No,,,https://a0.muscache.com/im/pictures/miso/Hosting-1252489917590992080/original/786ff9a4-0567-49ca-b68a-72b09806c56c.jpeg?aki_policy=large
1084453839716957915,Rest-Inn Spacious one bedroom apartment,https://airbnb.com/rooms/1084453839716957915,23.581,58.396,"https://www.google.com/maps?q=23.581,58.396",Entire rental unit,entire_home,1,2,3,90,15,560428480,Rabih,,1,f,0,,43,85,9978,13341,273,13,0,f,,2/20/2024,1/16/2026,,Yes,No,No,No,No,Yes,No,Yes,Yes,Yes,No,Yes,No,No,No,No,No,,,https://a0.muscache.com/im/pictures/69f5685c-18d5-4c9d-bc71-645a8f2df0b4.jpg?aki_policy=large
30685497,Luxuriant one bedroom flat with modern furniture,https://airbnb.com/rooms/30685497,23.57458,58.29887,"https://www.google.com/maps?q=23.57458,58.29887",Entire rental unit,entire_home,1,2,3,90,14,195989728,Yousif,2,1,s,20,,72,51,10185,13617,273,8,,f,,,1/16/2026,,Yes,No,Yes,Yes,Yes,Yes,Yes,Yes,Yes,Yes,Yes,Yes,No,No,No,No,No,,,https://a0.muscache.com/im/pictures/7ad36019-5887-4054-85a8-8f2cb358f7a2.jpg?aki_policy=large
582342038726796722,The Blue Gate 5,https://airbnb.com/rooms/582342038726796722,23.56703,58.61663,"https://www.google.com/maps?q=23.56703,58.61663",Entire home,entire_home,2,1,4,80,9,349307284,Aleksi,,1,m,10,0,147,14,5708,7632,273,9,0,f,,1/17/2023,4/21/2025,,Yes,No,No,No,No,Yes,No,Yes,Yes,Yes,No,Yes,Yes,No,No,No,No,,,https://a0.muscache.com/im/pictures/miso/Hosting-582342038726796722/original/c6e135ff-a282-4f95-8266-c4153fb8f1cf.jpeg?aki_policy=large
